stop_id,stop_code,stop_name,stop_desc,stop_lat,stop_lon,zone_id,stop_url,location_type,parent_station,stop_timezone,wheelchair_boarding
1220,,Cabina Enel,,45.479767,12.285228,,,,,,
1221,,Sottopasso,,45.537613,12.299688,,,,,,
1223,,Dese (v.delle Cicogne),,45.531807,12.303196,,,,,,
1224,,Dese Centro,,45.528294,12.304097,,,,,,
1225,,Dese  scuola Materna,,45.526306,12.303276,,,,,,
1226,,Civico 181,,45.526260,12.297414,,,,,,
1227,,Civico 184,,45.522385,12.288410,,,,,,
1228,,Incr. via Ca' Badoera,,45.516186,12.283892,,,,,,
1230,,Incr.v.Colombara (chiesa),,45.511486,12.282914,,,,,,
1231,,"Incr. via Indri  ""pesa""",,45.509735,12.282385,,,,,,
1232,,Civico 101 (v.S.Andrea),,45.507824,12.282148,,,,,,
1233,,Favaro Municipio,,45.505127,12.282409,,,,,,
1241,,Falzarego,,45.504719,12.253015,,,,,,
1242,,Piazza Carpenedo,,45.504879,12.250231,,,,,,
1243,,Cimitero,,45.499912,12.246756,,,,,,
1244,,Giardini,,45.502392,12.248509,,,,,,
1245,,Spalti,,45.497044,12.244541,,,,,,
1256,,Cimitero Marghera,,45.470589,12.207773,,,,,,
1257,,Incr. via Rione Pertini,,45.482300,12.269218,,,,,,
1258,,Incr. via Gavagnin,,45.483215,12.267179,,,,,,
1259,,Chiesa,,45.486523,12.270669,,,,,,
1260,,Istituto Foscari,,45.491146,12.269431,,,,,,
1264,,Civico 151,,45.493477,12.265884,,,,,,
1265,,Incr. via Mascheroni,,45.494267,12.264043,,,,,,
1267,,Incr. via Plinio,,45.497410,12.265296,,,,,,
1268,,Incr. via Bissuola,,45.495209,12.263380,,,,,,
1269,,Civico 88 (v.Tevere),,45.493866,12.260180,,,,,,
1270,,Istituto Berna,,45.494102,12.256093,,,,,,
1271,,Farmacia,,45.495220,12.252627,,,,,,
1272,,Incr.v.Colombo Civico 7,,45.495674,12.248920,,,,,,
1278,,Istituti scolastici,,45.496807,12.258912,,,,,,
1279,,Capolinea,,45.497936,12.257053,,,,,,
1280,,Istituti scolastici,,45.496574,12.259210,,,,,,
1284,,Incr. via Pasqualigo,,45.507183,12.261142,,,,,,
1285,,Civico 45,,45.505634,12.260758,,,,,,
1286,,Quartiere S. Giuseppe,,45.480907,12.266476,,,,,,
1287,,Incr.v.Pertini,,45.483772,12.262691,,,,,,
1288,,Incr. via Gritti,,45.486084,12.259979,,,,,,
1289,,Incr. via Cattaneo,,45.491871,12.253617,,,,,,
1290,,Incr. via Pigafetta,,45.493584,12.252581,,,,,,
1291,,Incr. via Garigliano,,45.495926,12.251306,,,,,,
1292,,Civico 32,,45.498016,12.248163,,,,,,
1296,,Fornase,,45.477577,12.158244,,,,,,
1297,,Cimitero,,45.481224,12.161765,,,,,,
1301,,Civico 62,,45.567219,12.360647,,,,,,
1302,,Le Crete,,45.560429,12.352803,,,,,,
1303,,Le Crete,,45.560196,12.352077,,,,,,
1304,,Matteotti,,45.489979,12.170173,,,,,,
1305,,Sanremo,,45.494946,12.158059,,,,,,
1306,,Localita' Orgnano,,45.496014,12.152871,,,,,,
1307,,Spinea (bivio V.Fiori),,45.485046,12.146421,,,,,,
1308,,Spinea  (via Desenzano),,45.488979,12.148776,,,,,,
1309,,Civico 95,,45.567333,12.360950,,,,,,
1310,,Pozzuoli,,45.488781,12.150131,,,,,,
1311,,Goldoni,,45.491623,12.152626,,,,,,
1312,,Giorgione,,45.486824,12.179265,,,,,,
1313,,Selenia,,45.485645,12.181893,,,,,,
1314,,Chirignago,,45.484528,12.189015,,,,,,
1315,,Incr. via dell' Edera,,45.483173,12.192863,,,,,,
1316,,Incr.via dei Pioppi,,45.477406,12.198316,,,,,,
1317,,Pozzuoli,,45.488712,12.149917,,,,,,
1318,,Civico 99,,45.474098,12.201151,,,,,,
1319,,Civico 87,,45.473289,12.200322,,,,,,
1320,,Civico 114,,45.474033,12.196892,,,,,,
1321,,Civico 49 (v.Morari),,45.473274,12.195314,,,,,,
1322,,Incr. via degli Ontani,,45.472542,12.192305,,,,,,
1325,,Rampa Rizzardi,,45.479496,12.239748,,,,,,
1326,,Catene  Chiesa,,45.477222,12.202905,,,,,,
1327,,Parco Catene,,45.477158,12.205816,,,,,,
1328,,Incr. via del Bosco,,45.476948,12.209763,,,,,,
1329,,Incr.v.Chioggia,,45.476730,12.215623,,,,,,
1330,,Civico 31,,45.478119,12.219826,,,,,,
1331,,CITA,,45.479942,12.223845,,,,,,
1336,,Incr. via Monzani,,45.463123,12.216402,,,,,,
1338,,via della Fratellanza,,45.461979,12.221536,,,,,,
1340,,Farmacia Comunale,,45.466141,12.223084,,,,,,
1348,,"P.zza Foscari ""scuole""",,45.476608,12.221971,,,,,,
1349,,P.le Parmesan,,45.477058,12.219509,,,,,,
1351,,Istituto Edison,,45.474487,12.219580,,,,,,
1352,,Fronte Edicola,,45.472237,12.220246,,,,,,
1353,,Chiesa,,45.469769,12.221539,,,,,,
1355,,Cimitero,,45.486870,12.189013,,,,,,
3508,,Linee Venezia,,45.217335,12.284477,,,,,,
3510,,Chioggia - Vaporetto,,45.223473,12.280875,,,,,,
3511,,Capolinea,,45.215195,12.276958,,,,,,
3527,,Scuole,,45.394730,12.064301,,,,,,
3528,,Scuole,,45.394653,12.065623,,,,,,
3529,,Al Fogher,,45.397614,12.079631,,,,,,
3530,,Al Fogher,,45.397427,12.079909,,,,,,
3539,,Istituto Professionale,,45.435257,12.123081,,,,,,
3541,,Incr. via Gatta,,45.533386,12.217827,,,,,,
3543,,Incr. via Sicilia,,45.526085,12.216903,,,,,,
3545,,Incr. via  Caprera,,45.521114,12.214567,,,,,,
3547,,Incr. via Procida,,45.517006,12.212956,,,,,,
3549,,Incr. via Rubens,,45.513294,12.213497,,,,,,
3551,,Incr. via Visinoni,,45.511532,12.205077,,,,,,
3552,,Incr. via Visinoni,,45.510750,12.206010,,,,,,
3553,,incr.via Favretto,,45.515530,12.205134,,,,,,
3554,,incr.via Segantini,,45.515583,12.204722,,,,,,
3555,,Civico 60,,45.586777,12.324355,,,,,,
3556,,Civico 60,,45.586311,12.323899,,,,,,
3557,,Civico 77,,45.582012,12.321466,,,,,,
3558,,Civico 77,,45.582218,12.320978,,,,,,
3559,,Civico 26,,45.582157,12.315933,,,,,,
3560,,Civico 26,,45.582474,12.314869,,,,,,
3561,,Edicola,,45.200657,12.291802,,,,,,
3562,,Scuola D. Milani,,45.199223,12.288345,,,,,,
3563,,Polizia Municipale,,45.219624,12.279145,,,,,,
3564,,Mogliano,,45.559334,12.234553,,,,,,
3566,,Distributore,,45.569149,12.113660,,,,,,
3567,,Distributore,,45.569187,12.113252,,,,,,
3568,,Incr. v.Carrer,,45.485264,12.264924,,,,,,
3569,,bivio Correzzola,,45.234070,12.023317,,,,,,
3572,,Localita' Bruso,,45.183628,12.085355,,,,,,
3573,,Localita' Bruso,,45.181934,12.085074,,,,,,
3574,,P.le Foscari - Capolinea,,45.491142,12.269146,,,,,,
3579,,Mira Lanza,,45.433975,12.132117,,,,,,
3580,,Mira Lanza  (ponte),,45.433910,12.132208,,,,,,
3581,,Incr. via Casone,,45.568138,12.060826,,,,,,
3582,,Incr. via Casone,,45.567921,12.060963,,,,,,
3583,,Uffici ASL,,45.511131,12.229644,,,,,,
3588,,MESTRE FS C7,,45.482250,12.233928,,,,,,
3595,,Civico 28 Scuole,,45.542831,12.156868,,,,,,
3596,,Civico 39 - Scuole,,45.542606,12.157611,,,,,,
3599,,Zona Industriale,,45.450024,12.076792,,,,,,
3600,,Zona Industriale,,45.450195,12.075768,,,,,,
3601,,via Matteotti,,45.495144,12.093040,,,,,,
3602,,Mirano Parcheggio ACTV,,45.494926,12.093230,,,,,,
3604,,Ex Zuccherificio,,45.141514,12.085921,,,,,,
3606,,Borgo San Giovanni Park,,45.207527,12.275680,,,,,,
3607,,Corte - Capolinea,,45.310081,12.074160,,,,,,
3608,,Corte fronte Capolinea,,45.310020,12.074274,,,,,,
3610,,Incr. via Pellico,,45.516895,12.188859,,,,,,
3611,,Incr. via Pellico,,45.516739,12.188991,,,,,,
3612,,Incr. via Pleiadi,,45.515347,12.198830,,,,,,
3613,,Incr. via Pleiadi,,45.514793,12.199503,,,,,,
3614,,Incr. via Selvanese,,45.507008,12.205826,,,,,,
3615,,Incr. via Selvanese,,45.507057,12.206266,,,,,,
3616,,Incr. via Colombo,,45.406288,11.998025,,,,,,
3617,,Incr. via Alfieri,,45.405968,11.998612,,,,,,
3621,,Civico 33 (Parco),,45.502422,12.260678,,,,,,
3623,,Carabinieri,,45.573689,12.106846,,,,,,
3624,,AEROPORTO M.POLO,,45.504532,12.339361,,,,,,
3625,,AEROPORTO M.POLO,,45.504860,12.339336,,,,,,
3626,,AEROPORTO M.POLO,,45.505020,12.339317,,,,,,
3629,,Incr. via Vallenari,,45.499603,12.267010,,,,,,
3630,,Incr.via Vallenari,,45.499531,12.266780,,,,,,
3631,,Civico 4,,45.502235,12.255118,,,,,,
3644,,Lova,,45.326851,12.124589,,,,,,
3648,,Ag. Delle Dogane,,45.468193,12.236047,,,,,,
3649,,Civico 40 - Lezze,,45.132000,12.065777,,,,,,
3650,,Cappella via Mezzaluna,,45.568119,12.154022,,,,,,
3651,,Cappella via Mezzaluna,,45.567970,12.154191,,,,,,
3652,,Civico 37 - Lezze,,45.131874,12.066104,,,,,,
3653,,Incr. via Stoppani,,45.498562,12.268826,,,,,,
3654,,Incr. via Stoppani,,45.498512,12.269062,,,,,,
3655,,Fronte Civico 3,,45.494789,12.268137,,,,,,
3659,,Incr.via F.Bandiera,,45.476192,12.233685,,,,,,
3661,,Prima di Boscochiaro,,45.134308,12.121820,,,,,,
3662,,dopo Boscochiaro,,45.134151,12.121883,,,,,,
3663,,"Tratt. ""Da Bepi""",,45.128132,12.131423,,,,,,
3664,,"Tratt. ""Da Bepi""",,45.127972,12.131321,,,,,,
1356,,Incr. vicolo Sestella,,45.489754,12.190089,,,,,,
1357,,Incr. via Carnia,,45.491848,12.190810,,,,,,
1358,,Incr. via Asseggiano,,45.494625,12.191706,,,,,,
1359,,Papa Giovanni XXIII,,45.517349,12.185987,,,,,,
1360,,Cassa di Risparmio,,45.518600,12.181961,,,,,,
1361,,Civico 169  (Tabina),,45.519402,12.177426,,,,,,
1362,,Incr. via Calvi,,45.520432,12.172472,,,,,,
1363,,Cimitero,,45.521858,12.166010,,,,,,
1364,,Incr.v.Tasso (scuole),,45.522987,12.162656,,,,,,
1365,,Maerne Chiesa,,45.523666,12.158612,,,,,,
1366,,Civico 120,,45.526634,12.156894,,,,,,
1368,,Luneo,,45.492027,12.163081,,,,,,
1370,,bivio Correzzola,,45.234779,12.023730,,,,,,
1371,,Martellago  (sc. Medie),,45.545921,12.158889,,,,,,
1372,,Incr. via Trento,,45.543777,12.167394,,,,,,
1373,,Banca,,45.545643,12.162381,,,,,,
1374,,Martellago Centro,,45.546471,12.158202,,,,,,
1375,,Vempa 2 Extraurbano,,45.482323,12.237676,,,,,,
1376,,Vempa,,45.482304,12.237786,,,,,,
1380,,Fincantieri,,45.476357,12.250622,,,,,,
1381,,Aquae,,45.471931,12.256989,,,,,,
1382,,Righi,,45.470062,12.264036,,,,,,
1392,,Santa Chiara,,45.440994,12.315572,,,,,,
1398,,SFMR Ospedale,,45.513245,12.225361,,,,,,
1399,,SFMR Ospedale,,45.513233,12.225492,,,,,,
1400,,Corsia 1,,45.512962,12.224432,,,,,,
1401,,Corsia 2,,45.512955,12.224361,,,,,,
1405,,SFMR Ospedale,,45.513348,12.225932,,,,,,
1406,,Incr. via Cruto,,45.461475,12.223510,,,,,,
1407,,incr. via Ghega Civico 61,,45.464680,12.225366,,,,,,
1408,,Civico 49  C. Formazione,,45.468185,12.227427,,,,,,
1410,,Civico 35,,45.472946,12.230142,,,,,,
1411,,Incr. Via Durando,,45.477501,12.232762,,,,,,
1412,,Finanza,,45.479996,12.234240,,,,,,
1414,,Incr. via Colombara,,45.456558,12.218300,,,,,,
1415,,Incr.SR11Padana Superiore,,45.451263,12.214230,,,,,,
1417,,Incr. via della Chimica,,45.446018,12.211447,,,,,,
1419,,Chiesa,,45.437027,12.205185,,,,,,
1420,,Marcon SFMR,,45.545563,12.314231,,,,,,
1421,,Incr.v.dell'Elettronica,,45.425079,12.247366,,,,,,
1422,,"Civico 66 ""le chiuse""",,45.428089,12.240620,,,,,,
1423,,Civico 42,,45.428307,12.231270,,,,,,
1424,,Civico 32,,45.429249,12.221783,,,,,,
1425,,"Civico 28 ""scuole""",,45.435242,12.209766,,,,,,
1426,,Sottopasso Romea,,45.438725,12.199763,,,,,,
1429,,Incr. via dell'Erba,,45.446144,12.194242,,,,,,
1430,,Marcon SFMR,,45.545406,12.313919,,,,,,
1431,,prima di v.Mattei,,45.549187,12.310306,,,,,,
1432,,dopo v.Mattei,,45.548939,12.310175,,,,,,
1433,,Dopo cavalcavia,,45.547897,12.330299,,,,,,
1434,,Incr. via Zorzi,,45.456417,12.180250,,,,,,
1435,,Incr. Statale 11,,45.453999,12.179540,,,,,,
1436,,Camping Serenissima,,45.451443,12.183123,,,,,,
1437,,Incr. via della Stazione,,45.448410,12.193731,,,,,,
1438,,Civico 128,,45.448666,12.199621,,,,,,
1439,,Incr. via del Luccio,,45.449188,12.203701,,,,,,
1442,,Silos,,45.434471,12.216965,,,,,,
1444,,Alcoa 1,,45.429951,12.234297,,,,,,
1445,,Alcoa 2,,45.429688,12.240067,,,,,,
1447,,Entrata Centrale Enel,,45.428581,12.247434,,,,,,
1448,,Prima del cavalcavia,,45.547974,12.330210,,,,,,
1450,,Nuova Sirma,,45.444141,12.214549,,,,,,
1451,,Ingresso 4,,45.446564,12.225307,,,,,,
1452,,Ingresso 5,,45.448757,12.232399,,,,,,
1453,,Ingresso 7,,45.449039,12.236317,,,,,,
1459,,Incr. via delle Macchine,,45.474003,12.239252,,,,,,
1465,,Banchina Molini,,45.474693,12.238216,,,,,,
1475,,V.le San Marco,,45.558056,12.300462,,,,,,
1477,,S. Lazzaro Chiesa,,45.653919,12.243081,,,,,,
1478,,S. Lazzaro Chiesa,,45.653755,12.242711,,,,,,
1479,,Incr. via Saccardo,,45.659000,12.246320,,,,,,
1480,,Incr. via Saccardo,,45.658848,12.246485,,,,,,
1481,,Ferrovia,,45.455368,12.173359,,,,,,
1482,,Incr. via Mare Egeo,,45.430626,12.140368,,,,,,
1483,,Incrocio via Mare Egeo,,45.430580,12.140191,,,,,,
1484,,Incr.v.Marovich,,45.482681,12.193038,,,,,,
1485,,Piazza S.Giorgio,,45.485367,12.187555,,,,,,
1486,,Momolo,,45.221397,12.294708,,,,,,
1487,,Ca' Lin Capolinea,,45.535824,12.191459,,,,,,
1495,,Fronte civico 10,,45.389217,12.017684,,,,,,
3666,,Capolinea Zerman,,45.579025,12.271363,,,,,,
3667,,Z.industriale,,45.582977,12.352371,,,,,,
4498,,Cantiere Navale,,45.289604,12.306430,,,,,,
4499,,Cantiere Navale,,45.289619,12.306330,,,,,,
4503,,Cimitero,,45.424324,12.377388,,,,,,
4504,,Civico 1,,45.419327,12.380287,,,,,,
4505,,P.zza Pola,,45.417839,12.378988,,,,,,
4506,,P.zza Pola,,45.418018,12.379490,,,,,,
4507,,Stabilimento Zona A,,45.415440,12.376919,,,,,,
4508,,Stabilimento Zona A,,45.415520,12.377190,,,,,,
4511,,Incr. via Negroponte,,45.415970,12.372196,,,,,,
4512,,Incr. via Lepanto,,45.415840,12.372262,,,,,,
4514,,Distributore,,45.419773,12.374946,,,,,,
4515,,Distributore,,45.420673,12.375587,,,,,,
4516,,Incr. via M. Polo,,45.422520,12.376697,,,,,,
4517,,Incr. via M. Polo,,45.422264,12.376378,,,,,,
4518,,Cimitero,,45.424397,12.377637,,,,,,
4520,,Aeroporto,,45.427120,12.381005,,,,,,
4521,,Chiesa di S.Nicolo',,45.428486,12.380375,,,,,,
4522,,Cimitero,,45.422874,12.382676,,,,,,
4523,,S. Nicolo',,45.430191,12.381992,,,,,,
4524,,SME 2,,45.417561,12.368731,,,,,,
4525,,SME 1,,45.417439,12.368489,,,,,,
4527,,Cimitero,,45.422798,12.382405,,,,,,
4528,,Incr. via Canal,,45.411804,12.366909,,,,,,
4529,,Incr. via Canal,,45.411369,12.366901,,,,,,
4530,,Incr. via Bembo,,45.409149,12.365871,,,,,,
4531,,Incr. via Bembo,,45.409649,12.366213,,,,,,
4532,,Pattinaggio,,45.405556,12.363879,,,,,,
4533,,via Morosini,,45.405663,12.364234,,,,,,
4534,,P.zza S. Antonio,,45.402821,12.361871,,,,,,
4535,,P.zza S. Antonio,,45.403084,12.362309,,,,,,
4536,,Incr. via Sansovino,,45.401276,12.360689,,,,,,
4537,,Incr. via Loredan,,45.401508,12.361128,,,,,,
4538,,Piazzale Torta,,45.399082,12.359012,,,,,,
4539,,Piazzale Torta,,45.399181,12.359373,,,,,,
4540,,Incr. via S.Gallo,,45.398212,12.358964,,,,,,
4541,,Incr. via S.Gallo,,45.398247,12.359227,,,,,,
4542,,Stabilimento Sorriso,,45.398521,12.361918,,,,,,
4543,,Stabilimento Sorriso,,45.398190,12.361495,,,,,,
4544,,Stabilimento Miramare,,45.400845,12.363631,,,,,,
4545,,Stabilimento Miramare,,45.400513,12.363163,,,,,,
4548,,Fronte Mostra del Cinema,,45.405384,12.367559,,,,,,
4549,,Lion's Bar,,45.404995,12.366851,,,,,,
4550,,Incr. via 4 Fontane,,45.408398,12.370925,,,,,,
4551,,Incr.via 4 Fontane,,45.407921,12.370271,,,,,,
4552,,Consorzio Alberghi,,45.411606,12.373806,,,,,,
4553,,Consorzio Alberghi,,45.411327,12.373337,,,,,,
4554,,Hotel Des Bains,,45.413883,12.375796,,,,,,
4555,,Hotel Des Bains,,45.413788,12.375510,,,,,,
4556,,Galoppatoio,,45.397747,12.357951,,,,,,
4557,,Galoppatoio,,45.397907,12.358381,,,,,,
4558,,Canottieri Diadora,,45.396366,12.356903,,,,,,
4559,,Canottieri Diadora,,45.396755,12.357453,,,,,,
4560,,Incr. via dei Giunta,,45.394646,12.355569,,,,,,
4561,,Incr. via dei Giunta,,45.394848,12.356008,,,,,,
4562,,Chiesa S. Ignazio,,45.392471,12.353857,,,,,,
4563,,Incr. via Fuga,,45.392597,12.354213,,,,,,
4564,,Scuola Materna,,45.389816,12.352042,,,,,,
4565,,Vigili del Fuoco,,45.385475,12.348263,,,,,,
4566,,Vigili del Fuoco,,45.385792,12.348770,,,,,,
4567,,Incr. via Alvisopoli,,45.382938,12.346194,,,,,,
4568,,Incr. via Alvisopoli,,45.383129,12.346588,,,,,,
4569,,Incr. via Parri,,45.379070,12.342971,,,,,,
4570,,Incr. via Parri,,45.379635,12.343730,,,,,,
4571,,Incr. via Bassanello,,45.374229,12.338304,,,,,,
4572,,Incr. via Bassanello,,45.374283,12.338650,,,,,,
4573,,Malamocco centro,,45.371658,12.336782,,,,,,
4575,,Malamocco centro,,45.372002,12.336955,,,,,,
4576,,Canada,,45.366581,12.335270,,,,,,
4577,,Canada,,45.366680,12.335499,,,,,,
4578,,Civico 40,,45.360973,12.332125,,,,,,
4579,,Civico 41,,45.361156,12.332352,,,,,,
4580,,Colonia Morosini,,45.358440,12.329723,,,,,,
4581,,Colonia Morosini,,45.358528,12.329983,,,,,,
4582,,IRCCS S.Camillo,,45.354595,12.326283,,,,,,
4583,,IRCCS S.Camillo,,45.354729,12.326589,,,,,,
4584,,Stella Maris,,45.352135,12.324331,,,,,,
4585,,Stella Maris,,45.352306,12.324622,,,,,,
4586,,via Ca' Rossa,,45.348988,12.319267,,,,,,
1946,,Civico 4,,45.388630,12.017770,,,,,,
1947,,Fronte Civico 45,,45.383644,12.086059,,,,,,
1948,,Fronte Civico 42,,45.383575,12.086565,,,,,,
2001,,Localita' Passetto,,45.097275,12.056532,,,,,,
2002,,Incr. via Sabbioni,,45.082169,12.058259,,,,,,
2003,,Ponti Novi,,45.065887,12.057684,,,,,,
2004,,Incr. via Sabbioni,,45.082142,12.058672,,,,,,
2005,,Localita' Passetto,,45.097244,12.056767,,,,,,
2006,,Ponti Novi,,45.065903,12.058137,,,,,,
2007,,Ponte Grignella,,45.072308,12.099315,,,,,,
2008,,Civico 60,,45.087536,12.109254,,,,,,
2009,,Civico 13,,45.079044,12.088490,,,,,,
2010,,Scuola Elementare,,45.075783,12.093864,,,,,,
2011,,Borgo S.Maria,,45.102467,12.059148,,,,,,
2012,,Borgo S.Maria,,45.102356,12.059383,,,,,,
2013,,Baggiolina - Botta,,45.110481,12.068046,,,,,,
2014,,Baggiolina - Botta,,45.110439,12.068411,,,,,,
2015,,Ca' Labia,,45.125538,12.076960,,,,,,
2016,,Ca' Labia,,45.125629,12.076694,,,,,,
2017,,Woom - Woom,,45.130608,12.078856,,,,,,
2018,,Woom - Woom,,45.130836,12.078642,,,,,,
2019,,Civico 19,,45.131111,12.039602,,,,,,
2020,,Civico 17,,45.131325,12.039495,,,,,,
2021,,Chiesa,,45.459774,12.067975,,,,,,
2022,,Chiesa,,45.459694,12.068141,,,,,,
2023,,Civico 10,,45.126045,12.030917,,,,,,
2024,,Civico 10,,45.125626,12.030951,,,,,,
2025,,Botti Barbarighe,,45.118916,12.026060,,,,,,
2026,,S.P.29 Cisterna Acqua,,45.134762,12.020034,,,,,,
2027,,S.P. 29 Cisterna Acqua,,45.134945,12.019778,,,,,,
2028,,Civico 63,,45.134945,11.984902,,,,,,
2029,,Papafava - Capolinea,,45.134972,11.979219,,,,,,
2030,,Pettorazza Grimani,,45.135231,11.990333,,,,,,
2031,,Pettorazza Grimani,,45.135456,11.990270,,,,,,
2035,,Cavarzere (ponte),,45.139194,12.081579,,,,,,
2036,,Cavarzere (ponte),,45.139084,12.081537,,,,,,
2037,,Argine SN bivio S.R. 516,,45.141361,12.071306,,,,,,
2038,,Argine sn bivio S.R. 516,,45.141586,12.071183,,,,,,
2039,,Pontenovo,,45.142071,12.070729,,,,,,
2040,,Incr. via Trieste,,45.142780,12.083400,,,,,,
2041,,Villaggio Busonera,,45.143047,12.095500,,,,,,
2042,,Boscochiaro,,45.139954,12.115326,,,,,,
2044,,Capitello,,45.139019,12.107971,,,,,,
2045,,Prima del ponte,,45.141521,12.096963,,,,,,
2046,,Ca' Venier,,45.145676,12.065795,,,,,,
2047,,Ca' Venier,,45.145229,12.066016,,,,,,
2048,,bivio Marcanta,,45.153088,12.057848,,,,,,
2049,,bivio Marcanta,,45.153225,12.057814,,,,,,
2050,,bivio S.R. 516,,45.152641,12.057492,,,,,,
2051,,bivio S.R. 516,,45.152756,12.057103,,,,,,
2052,,Pizzeria,,45.151848,12.049039,,,,,,
2053,,Pizzeria,,45.151646,12.049036,,,,,,
2054,,Scuola  Elementare,,45.148716,12.035334,,,,,,
2055,,Scuola  Elementare,,45.148994,12.035322,,,,,,
2056,,Tabacchi,,45.142017,12.022827,,,,,,
2057,,Tabacchi,,45.142349,12.022713,,,,,,
2058,,Rottanova Centro,,45.141476,12.013852,,,,,,
2059,,Rottanova  (ponte),,45.143974,12.014087,,,,,,
2060,,Rottanova  (ponte),,45.144135,12.014452,,,,,,
2061,,Ponte,,45.161911,11.999954,,,,,,
2062,,Ponte,,45.162018,12.000146,,,,,,
2063,,Conetta,,45.176670,11.996360,,,,,,
2064,,Conetta,,45.176598,11.996669,,,,,,
2065,,Cona Chiesa,,45.185513,12.019096,,,,,,
2066,,Cona Chiesa,,45.185493,12.018793,,,,,,
2067,,Incr. via Piera,,45.189114,12.038447,,,,,,
2068,,Incr. via Piera,,45.187172,12.037596,,,,,,
2069,,bivio Monsole,,45.206905,12.094780,,,,,,
2070,,bivio Monsole,,45.206905,12.095164,,,,,,
2071,,Monsole Centro,,45.201778,12.072740,,,,,,
2072,,Monsole Centro,,45.201637,12.072899,,,,,,
2073,,bivio Correzzola,,45.220779,12.113800,,,,,,
2074,,bivio Correzzola,,45.220203,12.112824,,,,,,
2075,,Fiume Bacchiglione,,45.228905,12.118565,,,,,,
2076,,Fiume Bacchiglione,,45.229107,12.118444,,,,,,
2077,,S. Margherita Centro,,45.242931,12.125108,,,,,,
2078,,S. Margherita Centro,,45.243080,12.124747,,,,,,
2079,,Villa Del Bosco,,45.215591,12.032373,,,,,,
2080,,Villa Del Bosco,,45.215416,12.032347,,,,,,
2081,,Pegolotte Centro,,45.193634,12.039517,,,,,,
2082,,Pegolotte Centro,,45.193630,12.039817,,,,,,
4587,,via Ca' Rossa,,45.348858,12.319654,,,,,,
4588,,Imbarco Ferry,,45.341656,12.309396,,,,,,
4589,,"Alberoni ""Chiesa""",,45.347122,12.317904,,,,,,
4590,,"Alberoni ""Chiesa""",,45.347221,12.318443,,,,,,
4591,,Golf Club,,45.345154,12.315077,,,,,,
4592,,Golf Club,,45.345154,12.315342,,,,,,
4593,,Sbarco Ferry,,45.341427,12.309233,,,,,,
4594,,Faro Rocchetta,,45.340984,12.309658,,,,,,
4595,,S. Maria Del Mare,,45.332634,12.317971,,,,,,
4596,,S. Maria Del Mare,,45.332775,12.317962,,,,,,
4597,,Belvedere,,45.323174,12.320036,,,,,,
4598,,Belvedere,,45.323395,12.320398,,,,,,
4599,,Di Botta,,45.318851,12.317818,,,,,,
4600,,Di Botta,,45.319019,12.318080,,,,,,
4601,,S. Pietro In Volta,,45.315151,12.315881,,,,,,
4602,,S. Pietro In Volta,,45.315346,12.316140,,,,,,
4603,,Incr. via Cimitero,,45.312630,12.314828,,,,,,
4604,,Incr. via Cimitero,,45.312805,12.315086,,,,,,
4605,,Porto Secco,,45.310135,12.313874,,,,,,
4606,,Porto Secco,,45.310356,12.314203,,,,,,
4607,,Localita' Mara,,45.301357,12.310891,,,,,,
4608,,Localita' Mara,,45.301598,12.311175,,,,,,
4609,,Vasche,,45.297134,12.309291,,,,,,
4610,,Vasche,,45.297485,12.309616,,,,,,
4611,,Ex Macello,,45.291706,12.307240,,,,,,
4612,,Ex Macello,,45.291866,12.307470,,,,,,
4613,,Piovini,,45.286125,12.305267,,,,,,
4614,,Piovini,,45.286110,12.305382,,,,,,
4615,,S. Antonio,,45.282776,12.304142,,,,,,
4616,,S. Antonio,,45.282990,12.304363,,,,,,
4617,,Brasiola,,45.276466,12.302516,,,,,,
4618,,Brasiola,,45.276733,12.302714,,,,,,
4619,,Scuola Elementare,,45.272434,12.301868,,,,,,
4620,,Scuola Elementare,,45.272522,12.302050,,,,,,
4621,,La Rosa - Pellestrina,,45.269348,12.301552,,,,,,
4622,,La Rosa - Pellestrina,,45.269569,12.301716,,,,,,
4623,,Campo Stella,,45.267014,12.301580,,,,,,
4624,,Campo Stella,,45.267094,12.301757,,,,,,
4625,,Imbarco per Chioggia,,45.262520,12.300159,,,,,,
4628,,SME 4,,45.416893,12.368805,,,,,,
4629,,Scuole Pisani - Gabelli,,45.413021,12.367312,,,,,,
4630,,Scuole Pisani - Gabelli,,45.413223,12.367537,,,,,,
4631,,Scuola Giovanni XXIII,,45.387493,12.350146,,,,,,
4632,,Scuola Giovanni XXIII,,45.387360,12.349788,,,,,,
4633,,Scuola Penzo,,45.370167,12.337010,,,,,,
4634,,Scuola Penzo,,45.369865,12.336820,,,,,,
4635,,Ospedale al Mare,,45.423042,12.384836,,,,,,
4638,,Campo Tre Rose,,45.264511,12.301018,,,,,,
4639,,Campo Tre Rose,,45.264614,12.301230,,,,,,
4641,,SME 3,,45.417480,12.368698,,,,,,
4644,,Fronte civico 1,,45.419361,12.380493,,,,,,
4647,,Incr. via Giolito,,45.389694,12.351628,,,,,,
4650,,Nigi,,45.572189,12.235341,,,,,,
4651,,Nigi,,45.572418,12.234817,,,,,,
4652,,Ferrovia (v.Ca'Marcello),,45.580383,12.228699,,,,,,
4653,,Ferrovia (v.Ca'Marcello),,45.580006,12.228727,,,,,,
4654,,Supermercato,,45.058079,12.059772,,,,,,
4655,,Supermercato,,45.058132,12.059364,,,,,,
4656,,Adria FS,,45.060417,12.052422,,,,,,
4657,,Civico 82/D (Capitello),,45.534691,12.146888,,,,,,
4658,,Civico 83 (Capitello),,45.535038,12.146359,,,,,,
4661,,Campo Sportivo-Portosecco,,45.305878,12.312383,,,,,,
4662,,Campo Sportivo-Portosecco,,45.306084,12.312571,,,,,,
4663,,Incr.v.della Resistenza,,45.334801,12.098100,,,,,,
4664,,Incr. via F.lli Cervi,,45.334499,12.098167,,,,,,
2314,,Capriccio,,45.418621,11.987434,,,,,,
2315,,Perarolo,,45.421772,11.979606,,,,,,
2316,,Perarolo,,45.422039,11.978552,,,,,,
2317,,Perarolo S. Antonio,,45.426533,11.963328,,,,,,
2318,,Perarolo S. Antonio,,45.426361,11.963326,,,,,,
2319,,Busa di Vigonza,,45.428459,11.953928,,,,,,
2320,,Busa di Vigonza,,45.428635,11.953702,,,,,,
2321,,Ponte di Brenta,,45.425484,11.947749,,,,,,
2322,,Ponte di Brenta,,45.425629,11.947614,,,,,,
2323,,bivio Noventa,,45.423409,11.941845,,,,,,
2324,,bivio Noventa,,45.423271,11.941933,,,,,,
2325,,Incr. via del Santo,,45.420361,11.933455,,,,,,
2326,,Incr. via del Santo,,45.420010,11.933550,,,,,,
2327,,Localita' S. Lazzaro,,45.417446,11.924695,,,,,,
2328,,Localita' S. Lazzaro,,45.415257,11.919618,,,,,,
2333,,Localita' Stanga,,45.409782,11.899809,,,,,,
2083,,Zuccherificio,,45.244289,12.024525,,,,,,
2084,,Zuccherificio,,45.244308,12.024680,,,,,,
2085,,Pontelongo FS,,45.251518,12.027018,,,,,,
2086,,Pontelongo FS,,45.251522,12.027180,,,,,,
2087,,Arzarello Chiesa,,45.275185,12.028544,,,,,,
2088,,Arzerello Chiesa,,45.274857,12.028643,,,,,,
2089,,dopo ferrovia,,45.277153,12.030059,,,,,,
2090,,Prima della ferrovia,,45.276894,12.030000,,,,,,
2091,,Arzergrande,,45.275120,12.044785,,,,,,
2092,,Arzergrande,,45.274796,12.044219,,,,,,
2093,,Arzergrande,,45.274075,12.056811,,,,,,
2094,,Arzergrande,,45.273762,12.056705,,,,,,
2095,,Incr.v.Vallonga - Manzoni,,45.271049,12.073941,,,,,,
2096,,Incr.v.Vallonga - Manzoni,,45.270756,12.073859,,,,,,
2097,,Scuola,,45.268108,12.102478,,,,,,
2098,,Scuola,,45.267685,12.102572,,,,,,
2099,,Rosara - Capolinea,,45.289772,12.098502,,,,,,
2100,,via Arzaron,,45.302933,12.090961,,,,,,
2101,,Ponte Corte,,45.312546,12.077592,,,,,,
2102,,Corte Centro,,45.308800,12.074002,,,,,,
2103,,Corte Centro,,45.309120,12.073676,,,,,,
2104,,via Provinciale,,45.303802,12.056401,,,,,,
2105,,Piove di Sacco,,45.298286,12.034706,,,,,,
2106,,Istituto Scolastico,,45.302151,12.031965,,,,,,
2107,,Istituto Scolastico,,45.302086,12.031693,,,,,,
2109,,Ospedale Piove,,45.292198,12.032159,,,,,,
2110,,Borgorossi,,45.287338,12.030335,,,,,,
2111,,Borgorossi,,45.287163,12.030002,,,,,,
2112,,Ospedale Piove,,45.292305,12.031986,,,,,,
2114,,Piove di Sacco,,45.298344,12.035042,,,,,,
2115,,via Arzaron,,45.302803,12.090602,,,,,,
2116,,Ponte Corte,,45.312511,12.077218,,,,,,
2117,,via Provinciale,,45.303497,12.056515,,,,,,
2118,,altezza civico 105,,45.303917,12.038516,,,,,,
2119,,Supermercato Europa,,45.303883,12.038686,,,,,,
2120,,bivio Campolongo,,45.315556,12.037087,,,,,,
2121,,bivio Campolongo,,45.315472,12.037034,,,,,,
2122,,bivio Callegaro,,45.315624,12.038021,,,,,,
2123,,bivio Callegaro,,45.315617,12.038136,,,,,,
2124,,Chiesa Campolongo,,45.323551,12.044011,,,,,,
2125,,Chiesa Campolongo,,45.323318,12.043747,,,,,,
2126,,Civico 17,,45.319218,12.052903,,,,,,
2127,,Civico 20,,45.319035,12.052815,,,,,,
2128,,Incr. via Chiesetta,,45.313808,12.060590,,,,,,
2129,,Incr. via Chiesetta,,45.313633,12.060658,,,,,,
2130,,Localita' Sampieri,,45.322762,12.076671,,,,,,
2131,,Localita' Sampieri,,45.322609,12.076985,,,,,,
2132,,Bojon Ferrovia,,45.336967,12.082616,,,,,,
2133,,Bojon Ferrovia,,45.337135,12.082285,,,,,,
2134,,Bojon Centro,,45.338020,12.069496,,,,,,
2135,,Bojon Centro,,45.338329,12.068984,,,,,,
2136,,Civico 291,,45.338772,12.061026,,,,,,
2137,,Civico 291,,45.338482,12.061383,,,,,,
2138,,Municipio Campolongo,,45.331409,12.048442,,,,,,
2139,,Municipio Campolongo,,45.331402,12.048707,,,,,,
2140,,Civico 38,,45.335896,12.039636,,,,,,
2141,,Civico 17,,45.335926,12.039308,,,,,,
2142,,Ristorante,,45.325523,12.026022,,,,,,
2143,,Ristorante,,45.325260,12.025873,,,,,,
2144,,Liettoli,,45.341938,12.022800,,,,,,
2145,,Liettoli,,45.341869,12.022511,,,,,,
2146,,Civico 68,,45.353333,12.029348,,,,,,
2147,,Civico 68,,45.353310,12.029253,,,,,,
2148,,Trentino e Chiusa,,45.357468,12.036114,,,,,,
2149,,Trentino e Chiusa,,45.357529,12.036069,,,,,,
2150,,Sandon,,45.363899,12.041694,,,,,,
2151,,Sandon,,45.363548,12.041225,,,,,,
2152,,Incr. via Pereri,,45.381836,12.048556,,,,,,
2153,,Incr. via Pereri,,45.381493,12.048288,,,,,,
2154,,Fosso' Centro,,45.385426,12.047618,,,,,,
2155,,Fosso' Centro,,45.386917,12.049405,,,,,,
2156,,Fosso' Chiesa,,45.385876,12.043658,,,,,,
2157,,Fosso' Chiesa,,45.386066,12.043875,,,,,,
2158,,Fosso' Centro,,45.385647,12.047450,,,,,,
2159,,Fosso' Centro,,45.386539,12.048965,,,,,,
2160,,Prima verso Fosso',,45.383537,12.035583,,,,,,
2161,,Terza verso Galta,,45.383778,12.035452,,,,,,
2162,,bivio Galta,,45.385536,12.024721,,,,,,
2335,,Incr. via Parise,,45.434170,12.074752,,,,,,
2336,,Incr. via Parise,,45.434555,12.074988,,,,,,
2337,,Dolo Municipio,,45.426273,12.074677,,,,,,
2338,,Dolo Municipio,,45.425991,12.074502,,,,,,
2339,,Cazzago,,45.439095,12.074393,,,,,,
2340,,Cazzago,,45.439503,12.074052,,,,,,
2341,,Centro Anziani,,45.544022,12.157350,,,,,,
2342,,Cazzago,,45.439632,12.073278,,,,,,
2343,,Incr. via Venezia,,45.569508,12.114352,,,,,,
2344,,Incr. via Venezia,,45.569901,12.115216,,,,,,
2345,,Civico 147,,45.439899,12.063660,,,,,,
2346,,Civico 147,,45.440037,12.063510,,,,,,
2347,,Civico 105,,45.440174,12.056026,,,,,,
2348,,Civico 105,,45.440037,12.055861,,,,,,
2349,,Arino Centro,,45.438850,12.049445,,,,,,
2350,,Arino Centro,,45.438980,12.049426,,,,,,
2351,,Civico 203,,45.453110,12.047221,,,,,,
2352,,Civico 203,,45.452881,12.047229,,,,,,
2353,,Civico 165,,45.454540,12.038601,,,,,,
2354,,Civico 165,,45.454746,12.038576,,,,,,
2355,,Pianiga Centro,,45.456375,12.030178,,,,,,
2356,,Pianiga Centro,,45.455990,12.030021,,,,,,
2357,,Incr. via Rivale,,45.456970,12.021329,,,,,,
2358,,Incr. via Roma,,45.457039,12.021542,,,,,,
2359,,Incr. via Bosco,,45.456036,12.012636,,,,,,
2360,,Incr. via Bosco,,45.456173,12.012517,,,,,,
2361,,Rivale Chiesa,,45.457279,12.006639,,,,,,
2362,,Rivale Chiesa,,45.457153,12.006528,,,,,,
2363,,Mellaredo - Capolinea,,45.459576,11.993154,,,,,,
2364,,Incr. via Accope'-Fratte,,45.461864,12.052288,,,,,,
2365,,Incr. via Accope'-Fratte,,45.462029,12.052318,,,,,,
2366,,Incr. via Di Vittorio,,45.436424,12.147483,,,,,,
2367,,Mira Scuole Civ.16,,45.435265,12.141922,,,,,,
2368,,Civico 35,,45.432892,12.141052,,,,,,
2370,,Incr. via Stazione,,45.458889,12.072989,,,,,,
2371,,Incr. via Stazione,,45.459087,12.072437,,,,,,
2372,,Ballo' Cimitero,,45.459969,12.077374,,,,,,
2373,,Cimitero Ballo',,45.460117,12.077264,,,,,,
2374,,Scatamburlo,,45.455818,12.072736,,,,,,
2375,,Scatamburlo,,45.455982,12.072563,,,,,,
2376,,Ballo' FS,,45.452446,12.072693,,,,,,
2377,,Ballo' FS,,45.452106,12.072574,,,,,,
2378,,Incr. via Trasimeno,,45.443222,12.074986,,,,,,
2379,,Incr. via Trasimeno,,45.443054,12.074777,,,,,,
2380,,Incr. via delle Ginestre,,45.450268,12.119853,,,,,,
2381,,Incr. via delle Ginestre,,45.450127,12.119335,,,,,,
2382,,Incr. Ponte per Marano,,45.457291,12.119040,,,,,,
2383,,Incr. Ponte per Marano,,45.457417,12.118905,,,,,,
2384,,SFMR Spinea,,45.490921,12.176497,,,,,,
2385,,Mazzocco Chiesa Piazzale,,45.552647,12.267636,,,,,,
2386,,Marano Centro,,45.465061,12.117574,,,,,,
2387,,Marano Centro,,45.465305,12.117216,,,,,,
2388,,Civico 102  Marano Ponte,,45.465130,12.118348,,,,,,
2389,,Civico 102 Marano Ponte,,45.465088,12.118240,,,,,,
2390,,Incr. via Trescievoli,,45.469757,12.117881,,,,,,
2391,,Incr. via Trescievoli,,45.469795,12.117974,,,,,,
2392,,Incr. via Olmo,,45.481529,12.117043,,,,,,
2393,,Incr. via Olmo,,45.481396,12.116799,,,,,,
2394,,Fornace,,45.477741,12.117394,,,,,,
2395,,Fornace,,45.477829,12.117056,,,,,,
2396,,Mirano - Capolinea,,45.494164,12.092800,,,,,,
2397,,Mira Alighieri,,45.435661,12.128793,,,,,,
2398,,Mira Alighieri,,45.435684,12.128541,,,,,,
2399,,Incr. via Porara Gidoni,,45.474464,12.108866,,,,,,
2400,,Incr. via Porara Gidoni,,45.474216,12.108633,,,,,,
2401,,inc.via S. Andrea,,45.431129,11.969812,,,,,,
2402,,inc.via S. Andrea,,45.430771,11.970551,,,,,,
2403,,Incr. via Porara,,45.467941,12.107917,,,,,,
2404,,Incr. via Porara,,45.467861,12.107899,,,,,,
2405,,Civico 79,,45.469711,12.093561,,,,,,
2406,,Corte,,45.309570,12.073760,,,,,,
2407,,Civico 62,,45.469860,12.093793,,,,,,
2408,,Scaltenigo Centro,,45.470097,12.082929,,,,,,
2409,,Scaltenigo Centro,,45.470284,12.082921,,,,,,
2410,,Scaltenigo Scuole,,45.469231,12.082302,,,,,,
2411,,Scaltenigo Scuole,,45.469307,12.082090,,,,,,
2412,,Incr. via Orione,,45.472538,12.064816,,,,,,
2413,,Incr. via Orione,,45.472862,12.064487,,,,,,
2414,,Incr. via Fratte,,45.474480,12.056262,,,,,,
2415,,Incr. via Fratte,,45.474258,12.056243,,,,,,
2416,,Incr. via Campocroce,,45.475842,12.047761,,,,,,
2417,,Incr. via Campocroce,,45.476021,12.047825,,,,,,
2418,,Incr. via Pianiga,,45.477566,12.038491,,,,,,
2420,,Capolinea - Caltana,,45.477234,12.029926,,,,,,
2163,,bivio Galta,,45.385670,12.024806,,,,,,
2164,,Galta,,45.391541,12.020727,,,,,,
2165,,Galta,,45.391720,12.022315,,,,,,
2170,,Vigonovo Comune,,45.385113,12.007987,,,,,,
2171,,Vigonovo Comune,,45.385204,12.006842,,,,,,
2172,,bivio Celeseo,,45.378815,12.002318,,,,,,
2173,,bivio Celeseo,,45.378853,12.002070,,,,,,
2174,,Civico 12,,45.428925,11.961950,,,,,,
2175,,Civico 12,,45.429070,11.962003,,,,,,
2176,,Civico 27,,45.429817,11.966422,,,,,,
2177,,Civico 16,,45.429825,11.966152,,,,,,
2178,,Civico 21,,45.342846,12.066495,,,,,,
2179,,Civico 21,,45.343086,12.065868,,,,,,
2180,,Civico 37,,45.349491,12.070999,,,,,,
2181,,Civico 37,,45.349892,12.070474,,,,,,
2182,,Rovine,,45.353195,12.073623,,,,,,
2183,,Rovine,,45.353180,12.073010,,,,,,
2184,,Civico 10,,45.356331,12.066175,,,,,,
2185,,Civico 10,,45.356663,12.066652,,,,,,
2186,,Bojon Ferrovia,,45.336987,12.080470,,,,,,
2187,,Bojon Ferrovia,,45.337124,12.080537,,,,,,
2188,,Localita' Vasi,,45.346371,12.087880,,,,,,
2189,,Localita' Vasi,,45.346344,12.087694,,,,,,
2190,,Incr. Campagna Lupia,,45.357182,12.092155,,,,,,
2191,,Incr. Campagna Lupia,,45.357456,12.091927,,,,,,
2192,,Premaore Chiesa,,45.362900,12.067897,,,,,,
2193,,Premaore Chiesa,,45.362614,12.067890,,,,,,
2194,,Incr. via Alighieri,,45.368114,12.066194,,,,,,
2195,,Incr. via Alighieri,,45.368332,12.066544,,,,,,
2196,,Cas. Stazione Prozzolo,,45.368229,12.094228,,,,,,
2197,,Cas. Stazione Prozzolo,,45.367039,12.093798,,,,,,
2198,,Prozzolo Chiesa,,45.369820,12.088703,,,,,,
2199,,Prozzolo Chiesa,,45.369583,12.088607,,,,,,
2200,,Civico 41,,45.373821,12.068981,,,,,,
2201,,Civico 122,,45.373730,12.068410,,,,,,
2202,,Incr. via Nuova,,45.381569,12.079524,,,,,,
2203,,Incr. Prozzolo,,45.381889,12.079711,,,,,,
2204,,Incr. Prozzolo,,45.382599,12.079156,,,,,,
2205,,Incr. Prozzolo,,45.382614,12.077571,,,,,,
2206,,Camponogara,,45.383339,12.073948,,,,,,
2207,,Camponogara,,45.383194,12.073959,,,,,,
2208,,bivio Campoverardo,,45.386990,12.072034,,,,,,
2209,,bivio Campoverardo,,45.386967,12.071756,,,,,,
2210,,Cinema,,45.382561,12.067958,,,,,,
2211,,S.Quirici,,45.382725,12.067878,,,,,,
2212,,Incr. via Castellaro Alto,,45.383118,12.057597,,,,,,
2213,,Incr. via Castellaro Alto,,45.383270,12.057682,,,,,,
2214,,Rist. Antica Pila,,45.377396,12.096272,,,,,,
2215,,Rist. Antica Pila,,45.377213,12.095795,,,,,,
2216,,bivio Calcroci,,45.384769,12.097730,,,,,,
2217,,bivio Calcroci,,45.384647,12.097363,,,,,,
2218,,Calcroci Chiesa,,45.385136,12.098729,,,,,,
2219,,Calcroci Chiesa,,45.385754,12.100000,,,,,,
2220,,Civico 73,,45.386257,12.116478,,,,,,
2221,,Civico 73,,45.386429,12.116395,,,,,,
2222,,Lughetto,,45.387905,12.125905,,,,,,
2223,,Lughetto,,45.387833,12.126177,,,,,,
2224,,Incr.  Strada Romea,,45.390163,12.139162,,,,,,
2225,,Incr. Strada  Romea,,45.390057,12.139142,,,,,,
2226,,Ferrovia,,45.394394,12.099977,,,,,,
6026,,Bissuola,,45.496052,12.248490,,,,,,
6027,,MESTRE CENTRO A1,,45.493263,12.245420,,,,,,
6028,,Paolucci,,45.479084,12.225640,,,,,,
6029,,Olivi,,45.491776,12.241684,,,,,,
6030,,Olivi,,45.491718,12.241858,,,,,,
6031,,Villa Erizzo,,45.490356,12.240447,,,,,,
6032,,Villa Erizzo,,45.490337,12.240765,,,,,,
6033,,Cappuccina,,45.486313,12.237763,,,,,,
6034,,Cappuccina,,45.486271,12.237946,,,,,,
6035,,Sernaglia,,45.484688,12.236752,,,,,,
6036,,Sernaglia,,45.484627,12.236967,,,,,,
6037,,Municipio,,45.476948,12.224798,,,,,,
6038,,Mercato,,45.473717,12.223490,,,,,,
6039,,Beccaria,,45.469913,12.222310,,,,,,
6040,,Beccaria,,45.469875,12.222557,,,,,,
6041,,Bottenigo,,45.462311,12.219723,,,,,,
6048,,Giovannacci,,45.479263,12.229527,,,,,,
6049,,Giovannacci,,45.479218,12.229551,,,,,,
6051,,Mercato,,45.473812,12.223796,,,,,,
6052,,S.Antonio,,45.476982,12.225003,,,,,,
6053,,Lavelli,,45.479000,12.225816,,,,,,
6054,,Bottenigo,,45.462090,12.219728,,,,,,
6055,,Manuzio,,45.492458,12.248048,,,,,,
1042,,Podgora,,45.484528,12.232892,,,,,,
1045,,Incr. via Promontore,,45.498634,12.218391,,,,,,
1046,,Incr. via Arsa,,45.496414,12.218858,,,,,,
1047,,Asseggiano - Capolinea,,45.497391,12.182811,,,,,,
1048,,Incr. via Da Todi,,45.496391,12.185580,,,,,,
1049,,Incr. via Euganea,,45.495205,12.190536,,,,,,
1050,,Incr.v.M.di Marzabotto,,45.493912,12.195908,,,,,,
1051,,Incr.v.Card.Trevisanato,,45.493275,12.201344,,,,,,
1052,,Istituto Volta,,45.492748,12.206956,,,,,,
1053,,Istituto Liceo Morin,,45.493046,12.214119,,,,,,
1054,,Incr. via Pirano,,45.494484,12.216845,,,,,,
1055,,Chiesa,,45.494804,12.218250,,,,,,
1060,,Incr. via Pitagora,,45.532757,12.190114,,,,,,
1061,,Incr. via Gatta,,45.536583,12.191025,,,,,,
1062,,Civico 51 (v.Mulino),,45.530563,12.151990,,,,,,
1063,,Incr. via Protagora,,45.537502,12.195558,,,,,,
1064,,Civico 47,,45.536991,12.203035,,,,,,
1065,,"S. Lucia ""scuole""",,45.534924,12.207728,,,,,,
1066,,Civico 90,,45.534519,12.213288,,,,,,
1067,,Incr. via Scaramuzza,,45.533882,12.218638,,,,,,
1068,,Incr. via Scarante,,45.533882,12.223372,,,,,,
1069,,Passaggio Livello,,45.533146,12.228958,,,,,,
1072,,Marocco,,45.535381,12.239241,,,,,,
1073,,incr.via Garofoli,,45.530621,12.238915,,,,,,
1074,,Vecchia Favorita,,45.526596,12.238677,,,,,,
1075,,Nuova Favorita,,45.524250,12.238535,,,,,,
1076,,Incr. via Terraglietto,,45.518085,12.238259,,,,,,
1077,,Villa Salus,,45.513634,12.238070,,,,,,
1078,,Incr.v.Borgo Pezzana,,45.508430,12.238123,,,,,,
1079,,Caserma Matter,,45.505127,12.237791,,,,,,
1080,,Incr. via Teano,,45.501850,12.237491,,,,,,
1082,,Filiasi,,45.497704,12.239670,,,,,,
1083,,Incr. via Trento,,45.542233,12.154095,,,,,,
1084,,P.tta  G. Bruno,,45.495457,12.242160,,,,,,
1086,,Parco del Picchio,,45.490509,12.215546,,,,,,
1087,,civico 120,,45.539356,12.174902,,,,,,
1088,,Incr. via Pree,,45.535824,12.178267,,,,,,
1089,,Incr. via Botticelli,,45.533020,12.182327,,,,,,
1090,,Trivignano B Park,,45.528370,12.189119,,,,,,
1091,,Trivignano (v.Chiesa),,45.527245,12.190022,,,,,,
1092,,Trivignano (v.Gozzoli),,45.525253,12.192817,,,,,,
1093,,Incr. via Lotto,,45.523041,12.196281,,,,,,
1094,,Incr. via Parolari,,45.517685,12.202957,,,,,,
1095,,Incr.v.Virgilio Municipio,,45.514652,12.208177,,,,,,
1096,,Zelarino Chiesa,,45.512611,12.211345,,,,,,
1097,,Incr. via Carpaccio,,45.510914,12.214054,,,,,,
1098,,Incr. Vicolo Marzenego,,45.506756,12.217998,,,,,,
1099,,Inc. via Bellotto,,45.503155,12.221167,,,,,,
1100,,Incr. via Piranesi,,45.500782,12.225597,,,,,,
1101,,"Incr.v.Ciardi,Cipressina",,45.499443,12.227614,,,,,,
1102,,Fornace,,45.540813,12.171749,,,,,,
1103,,Piscina CONI,,45.495914,12.235816,,,,,,
1110,,Gaggio  (bar Canton),,45.552353,12.310943,,,,,,
1112,,S. Liberale  (edicola),,45.548870,12.339019,,,,,,
1113,,Impianti Sportivi,,45.556049,12.304468,,,,,,
1114,,Cavalcavia Autostrada,,45.557709,12.310282,,,,,,
1118,,Liceo Berto,,45.557785,12.244257,,,,,,
1121,,Civico 249,,45.500954,12.322621,,,,,,
1122,,Mazzocco Chiesa,,45.553291,12.267604,,,,,,
1126,,bivio via Dello Sport,,45.558537,12.303589,,,,,,
1127,,Marcon  (via Giorgione),,45.555798,12.298609,,,,,,
1128,,Marcon  (via Filzi),,45.559689,12.298708,,,,,,
1130,,Incr.via Marmolada,,45.562691,12.298861,,,,,,
1131,,Marcon (municipio),,45.554241,12.299228,,,,,,
1132,,Incr. via Dello Sport,,45.553112,12.302137,,,,,,
1133,,Centro Commerciale sud,,45.543171,12.304363,,,,,,
1139,,Gaggio  (cimitero),,45.553913,12.318616,,,,,,
1140,,Gaggio Centro,,45.552181,12.316322,,,,,,
1141,,Gaggio Civico 61-v.Fermi,,45.552280,12.313584,,,,,,
1142,,Centro Commerciale nord,,45.547321,12.306565,,,,,,
1143,,Toys,,45.548691,12.308851,,,,,,
1150,,Istituto Foscari,,45.490726,12.269732,,,,,,
1151,,Fronte Civico 12,,45.216194,12.273779,,,,,,
1160,,Civico 59,,45.508911,12.262359,,,,,,
1171,,Incr. via Gerlin,,45.488258,12.250050,,,,,,
1172,,Incr. via Hermada,,45.484634,12.253420,,,,,,
1173,,Incr. via Millosevich,,45.482754,12.255230,,,,,,
1174,,Incr. via M. Moretti,,45.481213,12.256661,,,,,,
1175,,Stadio Atletica,,45.478943,12.260188,,,,,,
1177,,Incr. via Appia,,45.480339,12.271038,,,,,,
1178,,Porto Cavergnago,,45.483471,12.277644,,,,,,
6056,,Manuzio,,45.492542,12.248176,,,,,,
6057,,Cattaneo,,45.490097,12.251361,,,,,,
6058,,Cattaneo,,45.490200,12.251501,,,,,,
6059,,San Marco,,45.488022,12.253847,,,,,,
6060,,San Marco,,45.488087,12.254071,,,,,,
6061,,Sansovino,,45.485096,12.256966,,,,,,
6062,,Sansovino,,45.485188,12.257202,,,,,,
6063,,Molmenti,,45.482880,12.259509,,,,,,
6064,,Molmenti,,45.482960,12.259663,,,,,,
6065,,Boerio,,45.481281,12.261312,,,,,,
6066,,Boerio,,45.481369,12.261634,,,,,,
6067,,Forte Marghera,,45.478317,12.265455,,,,,,
6068,,Forte Marghera,,45.478428,12.265573,,,,,,
6069,,Marghera,,45.465748,12.214721,,,,,,
6071,,S.Giuliano,,45.473492,12.268394,,,,,,
6072,,S.Giuliano,,45.473759,12.269106,,,,,,
6073,,Stazione FS,,45.481922,12.234917,,,,,,
6074,,Stazione FS,,45.481861,12.235136,,,,,,
6075,,Emmer,,45.465141,12.220619,,,,,,
6076,,Emmer,,45.465164,12.220466,,,,,,
6080,,MESTRE CENTRO A4,,45.493237,12.245511,,,,,,
6081,,MESTRE CENTRO A2,,45.492588,12.245432,,,,,,
6084,,CORSIA C,,45.437992,12.319110,,,,,,
6501,,CA.RI.VE.,,45.477131,12.255259,,,,,,
8001,,Parcheggio Mogliano,,45.553440,12.246783,,,,,,
8002,,Fermata Di Servizio,,45.554585,12.247976,,,,,,
8003,,Fermata Di Servizio,,45.554398,12.247957,,,,,,
8005,,Parcheggio Fosso',,45.399250,12.050110,,,,,,
8007,,Parcheggio Bojon,,45.337421,12.084216,,,,,,
8009,,Deposito Dolo,,45.426048,12.081361,,,,,,
8010,,Deposito - Pertini,,45.486813,12.273690,,,,,,
8011,,Deposito Actv - Lido,,45.417236,12.377856,,,,,,
8012,,Deposito B.S. Giovanni,,45.207466,12.277295,,,,,,
8014,,Parcheggio Caltana,,45.477219,12.029517,,,,,,
8017,,Parcheggio Mirano,,45.494419,12.093053,,,,,,
8018,,Parcheggio Noale,,45.552876,12.068156,,,,,,
8019,,Parcheggio Scorze',,45.573212,12.103961,,,,,,
8023,,Deposito della Fisica,,45.446297,12.207698,,,,,,
8024,,Parcheggio VEMPA,,45.482456,12.237760,,,,,,
8026,,Distributore,,45.234753,12.161599,,,,,,
8029,,Deposito via della Fisica,,45.445709,12.207814,,,,,,
8030,,Deposito,,45.505295,12.294770,,,,,,
8034,,Preganziol Parcheggio,,45.601982,12.230536,,,,,,
8035,,Cavarzere Deposito,,45.148663,12.083944,,,,,,
8039,,Tronchino,,45.505825,12.293306,,,,,,
8040,,Deposito Lido,,45.416958,12.378319,,,,,,
8041,,Deposito Lido,,45.416862,12.378528,,,,,,
8042,,Deposito SITA,,45.416779,11.889693,,,,,,
8044,,Ve.Park,,45.438206,12.318789,,,,,,
9026,,Maerne incr.Frassinelli,,45.518566,12.152397,,,,,,
9040,,SME 5 - Sola discesa,,45.417366,12.368533,,,,,,
10142,,MESTRE CENTRO B2,,45.493076,12.245869,,,,,,
10167,,Finanza,,45.491863,12.245983,,,,,,
10177,,Appia,,45.479885,12.270829,,,,,,
10501,,CORSIA A8,,45.438164,12.318434,,,,,,
10511,,CORSIA A6,,45.438263,12.318851,,,,,,
10612,,MESTRE FS C1,,45.482079,12.234669,,,,,,
11177,,Appia,,45.479942,12.270513,,,,,,
12506,,Vivaldi,,45.490963,12.112412,,,,,,
12507,,Vivaldi,,45.491085,12.112538,,,,,,
18029,,Deposito via della Fisica,,45.446026,12.207792,,,,,,
2584,,Bar Boato,,45.521271,12.107141,,,,,,
2585,,Bar Boato,,45.521572,12.107121,,,,,,
2586,,Chiesa Salzano,,45.521309,12.103244,,,,,,
2587,,Chiesa Salzano,,45.521538,12.103206,,,,,,
2588,,Salzano Municipio,,45.521206,12.099051,,,,,,
2589,,Salzano Municipio,,45.521511,12.099097,,,,,,
2590,,Incr. via Malpaga,,45.457150,12.173627,,,,,,
2591,,Oriago - Capolinea,,45.453960,12.177473,,,,,,
2592,,Oriago Ferrovia,,45.454948,12.173531,,,,,,
2593,,Civico 5 (v.Cavin),,45.499985,12.056067,,,,,,
2594,,Incr. via Marche,,45.456615,12.170840,,,,,,
2595,,Chiesa Scaltenigo,,45.470909,12.080267,,,,,,
2596,,Civico 121,,45.483440,12.050300,,,,,,
2597,,Civico 36,,45.483250,12.050006,,,,,,
2598,,Campocroce Cimitero,,45.486969,12.051699,,,,,,
2599,,Campocroce Cimitero,,45.487022,12.051435,,,,,,
2600,,Depuratore,,45.522751,12.093121,,,,,,
2601,,Depuratore,,45.522438,12.092846,,,,,,
2602,,"Rist."" Belfiore""",,45.525448,12.086735,,,,,,
1179,,Camping Rialto,,45.484489,12.282277,,,,,,
1180,,Civico 73 (v.Bagaron),,45.485611,12.287866,,,,,,
1181,,Campalto Chiesa,,45.486565,12.293071,,,,,,
1182,,Incr. via Casilina,,45.488728,12.300962,,,,,,
1183,,Centro Don Vecchi,,45.490425,12.303865,,,,,,
1184,,Centro Ippico,,45.494301,12.311440,,,,,,
1185,,Civico 200,,45.496796,12.315647,,,,,,
1186,,Incr. via Piovega,,45.499008,12.319427,,,,,,
1188,,Tessera Centro,,45.504158,12.328233,,,,,,
1192,,Civico 163 (v.Ca'Zorzi),,45.508308,12.334814,,,,,,
1193,,Civico 175,,45.512020,12.343062,,,,,,
1194,,"Civico 208  ""Poste""",,45.512333,12.345559,,,,,,
1195,,Aeronavali,,45.514275,12.351898,,,,,,
1196,,Camping Alba D'oro,,45.517574,12.354869,,,,,,
1198,,Tessera Scuole,,45.503807,12.324360,,,,,,
1199,,Civico 126,,45.504116,12.319777,,,,,,
1200,,Civico 129,,45.504925,12.310043,,,,,,
1201,,Incr. via Cuneo,,45.503590,12.301404,,,,,,
1202,,Incr. via Lazzaretto,,45.503891,12.294690,,,,,,
1204,,Incr.via Monte Rosa,,45.505363,12.288495,,,,,,
1205,,Civico 15,,45.504913,12.283571,,,,,,
1206,,Civico 22 (v.Vallenari),,45.501411,12.284493,,,,,,
1207,,Incr.v.Borgo don Bosco,,45.497700,12.286077,,,,,,
1208,,Incr. via Ca' Dolfin,,45.496151,12.287404,,,,,,
1209,,Incr. via dei Mandarini,,45.493786,12.291631,,,,,,
1210,,Civico 220 (v. Mirtilli),,45.492104,12.293661,,,,,,
1211,,Incr. via Orlanda,,45.487423,12.295051,,,,,,
1212,,Orlanda,,45.485973,12.295866,,,,,,
1213,,Passo Campalto,,45.482811,12.295931,,,,,,
1215,,Bagaron,,45.482002,12.292283,,,,,,
1216,,Villaggio Laguna,,45.481892,12.287865,,,,,,
2603,,"Rist."" Belfiore""",,45.525864,12.087005,,,,,,
2604,,"Tratt. "" Baldi""",,45.532307,12.083330,,,,,,
2605,,"Tratt. "" Baldi""",,45.532085,12.082760,,,,,,
2606,,Civico 143,,45.541080,12.082769,,,,,,
2607,,Civico 143,,45.540890,12.082404,,,,,,
2608,,Incr. via Lancerotto,,45.547325,12.077973,,,,,,
2609,,Noale - Capolinea,,45.552982,12.068040,,,,,,
2611,,Civico 24,,45.549011,12.078455,,,,,,
2612,,Civico 24,,45.549339,12.078527,,,,,,
2613,,Civico 62,,45.548267,12.083298,,,,,,
2614,,Civico 62,,45.548512,12.083138,,,,,,
2615,,Civico 4  (Ferrovia),,45.547485,12.087913,,,,,,
2616,,Civico 4  (Ferrovia),,45.547680,12.088133,,,,,,
2617,,Robegano Chiesa,,45.541210,12.125000,,,,,,
2618,,Robegano Chiesa,,45.541550,12.125336,,,,,,
2619,,Incr. via M. Grappa,,45.543430,12.111552,,,,,,
2620,,Incr. via Volta,,45.543827,12.111234,,,,,,
2621,,Incr. via Puccini,,45.542206,12.119434,,,,,,
2622,,Incr. via Puccini,,45.542538,12.119170,,,,,,
2623,,Deposito C. A. B.,,45.545887,12.098993,,,,,,
2624,,Deposito C. A. B.,,45.545586,12.098818,,,,,,
2625,,Civico 65 (v.Circonv.),,45.531895,12.150700,,,,,,
2626,,Civico 65 (v.Circonv.),,45.532093,12.150688,,,,,,
2627,,Civico 164,,45.536907,12.140046,,,,,,
2628,,Civico 164,,45.537418,12.140165,,,,,,
2629,,Civico 15,,45.550339,12.146343,,,,,,
2630,,Civico 15,,45.550694,12.146422,,,,,,
2631,,Civico 101  (Cimitero),,45.548241,12.151134,,,,,,
2632,,Civico 101 (Cimitero),,45.548313,12.151826,,,,,,
2633,,Civico 57  - Ca' Combi,,45.555290,12.137457,,,,,,
2634,,Civico 57  - Ca' Combi,,45.554935,12.137161,,,,,,
2635,,Civico 125  (lampadari),,45.562611,12.128738,,,,,,
2636,,Civico 125  (lampadari),,45.562275,12.128825,,,,,,
2637,,Civico 118  Borgo Venezia,,45.565147,12.119439,,,,,,
2638,,Civico 118  Borgo Venezia,,45.565418,12.119615,,,,,,
2639,,Scorze' - Capolinea,,45.573227,12.104189,,,,,,
2640,,Carabinieri,,45.574284,12.107223,,,,,,
2642,,Incr. via Fermi,,45.574936,12.105792,,,,,,
2643,,Villaggio Elios,,45.576790,12.096158,,,,,,
2644,,Villaggio Elios,,45.576424,12.096289,,,,,,
2645,,Incr. Crosarona,,45.578754,12.072621,,,,,,
2646,,Incr. Crosarona,,45.578465,12.072599,,,,,,
2647,,Trebaseleghe-Capolinea,,45.591385,12.049764,,,,,,
2648,,Pepper,,45.586571,12.053479,,,,,,
2649,,Pepper,,45.586834,12.053505,,,,,,
2650,,Campocroce Centro,,45.492443,12.053546,,,,,,
2651,,Campocroce Centro,,45.492256,12.053181,,,,,,
2653,,Incr. via Vetrego,,45.463642,12.080013,,,,,,
2654,,Incr. via Vetrego,,45.463650,12.080317,,,,,,
2655,,Centro Anziani,,45.543892,12.157183,,,,,,
2657,,Incr. Civico 94,,45.427193,12.145228,,,,,,
2658,,incr. Civico 84,,45.427090,12.145559,,,,,,
2670,,Civico 11,,45.583176,12.060505,,,,,,
2671,,Civico 11,,45.582932,12.060333,,,,,,
2672,,Acque S. Benedetto,,45.580189,12.110620,,,,,,
2673,,Acque S. Benedetto,,45.580303,12.110235,,,,,,
2674,,Rio San Martino,,45.589039,12.111074,,,,,,
2675,,Cappella Centro,,45.568649,12.147484,,,,,,
2676,,Cappella Centro,,45.568394,12.147497,,,,,,
2677,,Civico 1,,45.568466,12.137089,,,,,,
2678,,Civico 8,,45.568981,12.136273,,,,,,
2679,,Ind. Ofa,,45.568939,12.128498,,,,,,
2680,,Ind. Ofa,,45.569141,12.128488,,,,,,
2681,,Inc. via Bassa,,45.567165,12.166618,,,,,,
2682,,Inc. via Bassa,,45.567120,12.165186,,,,,,
2683,,Civico 40,,45.562569,12.170918,,,,,,
2684,,Civico 17,,45.562847,12.172292,,,,,,
2685,,Peseggia Centro,,45.562290,12.181074,,,,,,
2686,,Peseggia Centro,,45.562126,12.180632,,,,,,
2687,,Incr. Nuova Moglianese,,45.564606,12.197354,,,,,,
2688,,Incr. Nuova Moglianese,,45.564518,12.197036,,,,,,
2689,,Civico 272,,45.562561,12.186523,,,,,,
2690,,Civico 143,,45.562504,12.185300,,,,,,
2691,,Civico 18,,45.563210,12.191019,,,,,,
2692,,Civico 171,,45.563366,12.190618,,,,,,
2693,,Incr. via S. Mattarella,,45.563828,12.204589,,,,,,
2694,,Civico 83,,45.564571,12.203361,,,,,,
2695,,Cabina Enel,,45.562313,12.209621,,,,,,
2696,,Civico 107,,45.562473,12.209666,,,,,,
2697,,Incr. via Ghetto,,45.558147,12.220497,,,,,,
2698,,Incr. via Ghetto,,45.558437,12.220246,,,,,,
2701,,incr.via Pia,,45.560673,12.234824,,,,,,
2704,,Incr. via Cavour,,45.567211,12.235480,,,,,,
2705,,incr.via Marconi,,45.566898,12.235085,,,,,,
2706,,Incr. Campocroce,,45.583405,12.233728,,,,,,
2707,,Incr. Campocroce,,45.581184,12.232975,,,,,,
2708,,Piazza Dalla Vecchia,,45.428623,11.975646,,,,,,
2709,,Piazza Dalla Vecchia,,45.428894,11.975593,,,,,,
2710,,Civico 11  (Chiesa),,45.583839,12.219896,,,,,,
2711,,Campocroce Chiesa,,45.584335,12.219008,,,,,,
2712,,Civico 69,,45.590599,12.203795,,,,,,
2713,,Civico 69,,45.590919,12.203897,,,,,,
2714,,Civico 120,,45.595345,12.185582,,,,,,
2715,,Civico 120,,45.595371,12.186152,,,,,,
2716,,Incr. via Kennedy,,45.600151,12.176664,,,,,,
2717,,Civico 108 (v.1 Maggio),,45.600544,12.178335,,,,,,
2718,,incr.via XXV Aprile,,45.543022,12.112362,,,,,,
2719,,Civico 55,,45.602009,12.156534,,,,,,
2720,,Civico 36,,45.602310,12.156636,,,,,,
2721,,Civico 45  - S.Alberto,,45.611580,12.137780,,,,,,
2722,,Civico 2  - S. Alberto,,45.612034,12.137817,,,,,,
2723,,Civico 62  (v.Bellini),,45.614265,12.122847,,,,,,
2724,,Incr. via Bellini,,45.614014,12.122433,,,,,,
2725,,Civico 73  (Pesa),,45.615646,12.093908,,,,,,
2726,,Civico 104  (Pesa),,45.615910,12.093594,,,,,,
2727,,Scandolara Centro,,45.616188,12.102055,,,,,,
2728,,Scandolara Centro,,45.616405,12.102067,,,,,,
2729,,Incr. via Onaro,,45.615265,12.112586,,,,,,
2730,,Incr. via Onaro,,45.615631,12.112395,,,,,,
2731,,Civico 2 (v.S.Ambrogio),,45.615536,12.081622,,,,,,
2732,,Civico 1  (v.S.Ambrogio),,45.616013,12.080783,,,,,,
2733,,Badoere Centro,,45.634373,12.083421,,,,,,
2734,,Civico 2  (Distributore),,45.632130,12.083556,,,,,,
2735,,Civico 21,,45.631927,12.084058,,,,,,
2736,,Incr. Sambughe',,45.590294,12.233995,,,,,,
2737,,Incr. Sambughe',,45.590664,12.234571,,,,,,
2738,,Preganziol Centro,,45.603745,12.235579,,,,,,
2739,,Preganziol Centro,,45.602409,12.235010,,,,,,
2740,,Cimitero (Rotatoria ),,45.648609,12.242198,,,,,,
2741,,Civico 13  - Frescada,,45.644306,12.241645,,,,,,
2742,,Frescada (v.2 Giugno),,45.641190,12.241307,,,,,,
2743,,Incr. Dosson,,45.633881,12.240264,,,,,,
2744,,bivio S.Trovaso,,45.625881,12.239435,,,,,,
2745,,incr. via Baratta Nuova,,45.612492,12.237393,,,,,,
2746,,incr.via Guizzetti,,45.617046,12.238400,,,,,,
2747,,Localita' Alle Grazie,,45.620777,12.239066,,,,,,
2748,,ULSS 9,,45.630810,12.239921,,,,,,
2749,,Treviso - Capolinea,,45.662018,12.245091,,,,,,
2750,,Civico 113,,45.423634,11.978080,,,,,,
2751,,Cimitero (Rotatoria),,45.648335,12.241538,,,,,,
2752,,Civico 13  - Frescada,,45.644024,12.241098,,,,,,
2753,,Frescada (v.2 Giugno),,45.640766,12.240617,,,,,,
2754,,Incr. Dosson-Mulinetto,,45.633533,12.239895,,,,,,
2755,,ULSS 9,,45.630672,12.239594,,,,,,
2756,,bivio S.Trovaso,,45.625584,12.239079,,,,,,
2757,,Localita' Alle Grazie,,45.620464,12.238439,,,,,,
2758,,incr. via Guizzetti,,45.616730,12.237679,,,,,,
2759,,incr. via Baratta Nuova,,45.612072,12.236735,,,,,,
2760,,Cinema Busan,,45.561485,12.238019,,,,,,
2761,,Mogliano Municipio,,45.561352,12.236813,,,,,,
2762,,Cimitero,,45.561768,12.241765,,,,,,
2763,,Cimitero,,45.561867,12.241709,,,,,,
4666,,Rottanova (dopo ponte),,45.151344,12.010028,,,,,,
4667,,Rottanova (dopo ponte),,45.151581,12.009376,,,,,,
4668,,Civico 26-28,,45.179379,12.012508,,,,,,
4669,,Civico 26-28,,45.179390,12.012841,,,,,,
4675,,MESTRE CENTRO B6,,45.493824,12.245894,,,,,,
4679,,Stazione di Ballo',,45.453373,12.071847,,,,,,
4680,,Scuole,,45.426968,12.077444,,,,,,
4681,,Stadio,,45.428810,12.074663,,,,,,
4686,,Parcheggio,,45.489689,12.106085,,,,,,
4687,,Parcheggio,,45.489700,12.106392,,,,,,
4688,,Trattoria,,45.486103,12.107016,,,,,,
4689,,Incr.via Gramsci,,45.487377,12.105922,,,,,,
4690,,Mira Porte,,45.439304,12.139469,,,,,,
4692,,Scuole,,45.438084,12.127519,,,,,,
4693,,Poste,,45.435555,12.121470,,,,,,
4697,,Marano FS,,45.462662,12.118917,,,,,,
4698,,Stadio,,45.428783,12.074480,,,,,,
4699,,Scuole,,45.426811,12.077395,,,,,,
4704,,Civico 17 - Ca' Piasenti,,45.119793,12.101528,,,,,,
4705,,Fronte civico 17,,45.119678,12.101248,,,,,,
4718,,Distributore,,45.500935,12.054734,,,,,,
4725,,SP. 22 Bretella,,45.418228,12.152497,,,,,,
4726,,sp. 22 Bretella,,45.418053,12.152196,,,,,,
4727,,Prima inc. viale Venezia,,45.484306,12.107591,,,,,,
4728,,dopo viale Venezia,,45.484306,12.107925,,,,,,
4729,,Parcheggio BUS,,45.418175,12.370293,,,,,,
4731,,Incr. via Stignano,,45.499043,12.214817,,,,,,
4732,,Alimentari Km 21.500,,45.539936,12.064437,,,,,,
4733,,Alimentari Km 21.500,,45.539986,12.065098,,,,,,
4738,,incr.v.le San Marco,,45.487251,12.257220,,,,,,
4745,,Uffici ASL,,45.510635,12.229648,,,,,,
4746,,Piscine,,45.437565,12.145741,,,,,,
4747,,Parcheggio,,45.435432,12.144120,,,,,,
4771,,Incr. via Borromini,,45.432774,12.141248,,,,,,
4772,,Mira Scuole,,45.435165,12.141762,,,,,,
4773,,Parcheggio,,45.435333,12.143954,,,,,,
4774,,Incr. via Di Vittorio,,45.436302,12.147574,,,,,,
4775,,Piscina,,45.437626,12.145868,,,,,,
4788,,Boscochiaro,,45.137207,12.117138,,,,,,
4794,,S.P.64 incr. via Volta,,45.556282,12.229080,,,,,,
4795,,S.P.64 incr.via Meucci,,45.556736,12.229276,,,,,,
4808,,Municipio,,45.491547,12.164321,,,,,,
4809,,Capolinea - GiroSpinea,,45.489891,12.167588,,,,,,
4810,,Civico 3,,45.489956,12.169884,,,,,,
4811,,Farmacia Comunale,,45.489983,12.169703,,,,,,
4812,,Civico 35,,45.486530,12.167828,,,,,,
4813,,Incr.v.Grossi,,45.484165,12.166053,,,,,,
4814,,Civico 52,,45.486465,12.167516,,,,,,
4815,,Alfieri,,45.436047,12.121332,,,,,,
4822,,Civico 8D,,45.478462,12.149027,,,,,,
4823,,Civico 21A,,45.477791,12.150016,,,,,,
4824,,Centro Sportivo,,45.487957,12.149321,,,,,,
4825,,Centro Sportivo,,45.487877,12.149035,,,,,,
4826,,Civico 16,,45.488056,12.151726,,,,,,
4827,,Fronte civico 16,,45.488194,12.151013,,,,,,
4828,,Scuola Anna Frank,,45.488186,12.155153,,,,,,
4830,,Scuola Anna Frank,,45.488312,12.155491,,,,,,
4831,,Fronte civico 21,,45.490288,12.158263,,,,,,
4832,,Civico 21,,45.490551,12.158356,,,,,,
4833,,Incr.via Trieste,,45.538742,12.153326,,,,,,
4834,,inc via Trieste,,45.538483,12.153155,,,,,,
4837,,Mogliano FS,,45.561470,12.233035,,,,,,
4838,,Onaro-Capolinea,,45.613815,12.112705,,,,,,
6001,,Favaro,,45.506100,12.290910,,,,,,
6002,,Favaro,,45.505962,12.290901,,,,,,
6003,,La Piazza,,45.505360,12.286064,,,,,,
6004,,La Piazza,,45.505116,12.286189,,,,,,
6005,,Pastrello,,45.504559,12.282135,,,,,,
6006,,Pastrello,,45.504429,12.282165,,,,,,
6007,,Marmolada,,45.503059,12.277483,,,,,,
6008,,Marmolada,,45.502930,12.277532,,,,,,
6009,,Cervino,,45.502525,12.274627,,,,,,
6010,,Cervino,,45.502480,12.274713,,,,,,
6011,,Rielta,,45.502666,12.271367,,,,,,
6013,,Pineta,,45.503551,12.264941,,,,,,
6014,,Pineta,,45.503189,12.266449,,,,,,
6015,,Pasqualigo,,45.504295,12.262085,,,,,,
6016,,Pasqualigo,,45.504082,12.260742,,,,,,
6017,,San Dona',,45.503765,12.257381,,,,,,
6018,,San Dona',,45.503567,12.256568,,,,,,
6019,,Serravalle,,45.503063,12.254797,,,,,,
6020,,Serravalle,,45.502438,12.254829,,,,,,
6021,,Oberdan,,45.500687,12.252535,,,,,,
6022,,Oberdan,,45.500633,12.252715,,,,,,
6023,,Volturno,,45.498089,12.249990,,,,,,
6024,,Volturno,,45.498032,12.250107,,,,,,
6025,,Bissuola,,45.496101,12.248282,,,,,,
2764,,Civico 41  (via Parini),,45.561722,12.247344,,,,,,
2765,,Civico 41,,45.561939,12.247547,,,,,,
2766,,Civico 98,,45.561592,12.252643,,,,,,
2767,,Civico 98,,45.561848,12.252630,,,,,,
2768,,Incr. via S. Michele,,45.564754,12.258345,,,,,,
2769,,Incr. via S. Michele,,45.564671,12.258003,,,,,,
2770,,Civico 19,,45.560547,12.258383,,,,,,
2771,,Civico 19,,45.560707,12.258594,,,,,,
2772,,Chiesa Zerman,,45.579391,12.270218,,,,,,
2773,,"Tratt. ""al Messicano""",,45.558746,12.262972,,,,,,
2774,,Ex Cotonificio,,45.558720,12.263850,,,,,,
2775,,Istituto Gris,,45.558414,12.267216,,,,,,
2776,,Istituto Gris,,45.558624,12.267340,,,,,,
2777,,Civico 140  (via Roma),,45.558453,12.277777,,,,,,
2778,,Civico 140  (via Roma),,45.558563,12.278088,,,,,,
2779,,Civico 121,,45.556175,12.283014,,,,,,
2780,,Civico 120,,45.556431,12.282970,,,,,,
2781,,Civico 94,,45.555542,12.287964,,,,,,
2782,,Civico 94,,45.555733,12.287979,,,,,,
2783,,Incr. via V. Veneto,,45.555267,12.293572,,,,,,
2784,,Incr. via V. Veneto,,45.555523,12.293561,,,,,,
2785,,Incr. via Poianon,,45.556347,12.348242,,,,,,
2786,,Incr. via Poianon,,45.556389,12.347804,,,,,,
2793,,Ferrovia,,45.573704,12.365744,,,,,,
2794,,Ferrovia,,45.573910,12.365435,,,,,,
2795,,Civico 71  (v.Amstrong),,45.570068,12.363152,,,,,,
2796,,Civico 71  (v.Amstrong),,45.570267,12.362851,,,,,,
2797,,Civico 5  (Sottopasso),,45.579037,12.373327,,,,,,
2798,,Quarto D'Altino Centro,,45.581097,12.368839,,,,,,
2799,,Quarto D'Altino Centro,,45.580944,12.369109,,,,,,
2800,,Sottopasso Ferroviario,,45.579205,12.373199,,,,,,
2801,,Incr. via Zanettin,,45.583153,12.357642,,,,,,
2802,,Civico 192,,45.583344,12.357522,,,,,,
2803,,Rist. Odino,,45.584175,12.352501,,,,,,
2804,,Rist. Odino,,45.584293,12.352648,,,,,,
2805,,Incr. via Matter,,45.592056,12.333408,,,,,,
2806,,Incr. via Matter,,45.592327,12.333346,,,,,,
2807,,Civico 44 bivio Bonisiolo,,45.593723,12.327208,,,,,,
2808,,Civico 44 bivio Bonisiolo,,45.594078,12.327325,,,,,,
2809,,P.zza Aldo Moro,,45.571938,12.108411,,,,,,
2810,,P.zza 1 Maggio,,45.572460,12.108077,,,,,,
2811,,Civico 71,,45.578136,12.081274,,,,,,
2812,,Civico 71,,45.577717,12.081258,,,,,,
2813,,Civico 41,,45.567318,12.073254,,,,,,
2814,,Civico 41,,45.567230,12.072847,,,,,,
2815,,Incr. via Crosarona,,45.571815,12.071862,,,,,,
2816,,Incr. via Crosarona,,45.571529,12.071915,,,,,,
2817,,Cappelletta Centro,,45.571419,12.060874,,,,,,
2818,,Incr. strada Del Bigolo,,45.558311,12.062269,,,,,,
2819,,Moniego Chiesa,,45.561855,12.083945,,,,,,
2820,,Moniego Chiesa,,45.561436,12.083967,,,,,,
2821,,Civico 22,,45.563667,12.094446,,,,,,
2823,,Incr. via Livenza,,45.546665,12.094063,,,,,,
2824,,Incr. via Livenza,,45.546471,12.094188,,,,,,
2825,,Civico 30 (v.Scarlatti),,45.551292,12.115203,,,,,,
2826,,Centrale Enel,,45.560146,12.114494,,,,,,
2827,,Civico 108 (v.Malconton),,45.592949,12.195348,,,,,,
2828,,via Della Fonda,,45.553307,12.068505,,,,,,
2829,,Civico 4B,,45.549671,12.076823,,,,,,
2835,,Briana,,45.533951,12.051270,,,,,,
2836,,Incr. strada Delle Valli,,45.537746,12.059246,,,,,,
2837,,"Tratt. ""Collie""",,45.519310,12.028912,,,,,,
2838,,"Tratt. ""Collie""",,45.519024,12.028595,,,,,,
2840,,Centro Caltana,,45.479015,12.030777,,,,,,
2841,,Centro Caltana,,45.479465,12.029469,,,,,,
2842,,Centro Caltana,,45.479321,12.029277,,,,,,
2843,,Industria Safilo,,45.493298,12.006729,,,,,,
2844,,Industria Safilo,,45.493153,12.007015,,,,,,
2845,,bivio S. Angelo,,45.505150,12.011191,,,,,,
2846,,bivio S.Angelo (Lusore),,45.505672,12.011652,,,,,,
2847,,Incr. via Galilei,,45.496826,12.077936,,,,,,
2848,,Incr. via Galilei,,45.496178,12.080434,,,,,,
2854,,Volto - Fermata SITA,,45.095715,12.254479,,,,,,
2855,,Volto - Fermata SITA,,45.095612,12.254874,,,,,,
2856,,Rosolina P.za Marconi,,45.075825,12.245637,,,,,,
2857,,Ridotto Madonna,,45.196255,12.281748,,,,,,
2861,,Distributore Agip,,45.570946,12.263969,,,,,,
2862,,Distributore Agip,,45.570850,12.264265,,,,,,
2863,,Villa Condulmer,,45.575653,12.267770,,,,,,
2864,,Centro Sportivo,,45.576851,12.270066,,,,,,
2865,,Casale sul Sile (Chiesa),,45.598610,12.325785,,,,,,
2866,,S. Liberale Chiesa,,45.548458,12.342112,,,,,,
2867,,S. Liberale Chiesa,,45.548382,12.341655,,,,,,
2868,,dopo chiesa,,45.178570,12.003613,,,,,,
2869,,Prima della chiesa,,45.178493,12.003915,,,,,,
2870,,Cona,,45.184925,12.023455,,,,,,
2871,,Cona,,45.185345,12.023807,,,,,,
2872,,Villa Volpi,,45.537560,12.239054,,,,,,
2873,,Incr. via Marignana,,45.541569,12.236636,,,,,,
2874,,incr.via Corridoni,,45.548801,12.234464,,,,,,
2875,,Incr. via Ronzinella,,45.552898,12.234143,,,,,,
2876,,Civico 19,,45.561905,12.244534,,,,,,
2877,,Civico 6,,45.560989,12.245188,,,,,,
2878,,Supermercato Cadoro,,45.558453,12.245071,,,,,,
2879,,Supermercato Cadoro,,45.558300,12.245292,,,,,,
2880,,Civico 47  (v.Vespucci),,45.586327,12.215308,,,,,,
2881,,Campocroce  (v.Vespucci),,45.586918,12.215828,,,,,,
2882,,Colmello Centro,,45.559380,12.275063,,,,,,
2883,,Colmello Centro,,45.559177,12.275146,,,,,,
2884,,Incr. via Barbato,,45.502502,12.047723,,,,,,
2885,,Incr. via Barbato,,45.502190,12.047307,,,,,,
2886,,Dolo Ospedale,,45.421013,12.071504,,,,,,
2887,,Dolo Ospedale,,45.421734,12.072703,,,,,,
2888,,P.zza Marconi,,45.384575,12.071853,,,,,,
2889,,P.zza Marconi,,45.384869,12.071986,,,,,,
2890,,S.M.delle Badesse,,45.536350,11.936273,,,,,,
2891,,Civico 111 (v.Malconton),,45.592594,12.195349,,,,,,
2892,,Zero Branco -Capolinea,,45.602039,12.166902,,,,,,
2893,,Zero Branco Centro,,45.602573,12.166193,,,,,,
2894,,Civico 205,,45.399258,12.051648,,,,,,
2895,,Civico 205,,45.399483,12.052189,,,,,,
2896,,Incr. via Bosello,,45.376850,12.046864,,,,,,
2897,,Incr. via Bosello,,45.376560,12.046856,,,,,,
2902,,dopo il ponte,,45.157413,12.003799,,,,,,
2903,,Civico 13,,45.193882,12.042299,,,,,,
2904,,Civico 13,,45.193748,12.041816,,,,,,
2905,,Incr. Venezia,,45.205460,12.096965,,,,,,
2906,,Incr. Venezia,,45.205387,12.096584,,,,,,
2907,,Chiesa,,45.199848,12.098606,,,,,,
2908,,bivio Rosara,,45.289772,12.130206,,,,,,
2909,,bivio Rosara,,45.290257,12.130670,,,,,,
2910,,bivio Lova,,45.327183,12.133496,,,,,,
2911,,bivio Lova,,45.328331,12.134330,,,,,,
2912,,Canale Piccolo,,45.340668,12.135137,,,,,,
2913,,Canale Piccolo,,45.341278,12.135486,,,,,,
2914,,bivio Campagna Lupia,,45.368683,12.138467,,,,,,
2915,,bivio Calcroci,,45.390774,12.140006,,,,,,
2916,,bivio Campagna Lupia,,45.366272,12.137600,,,,,,
2917,,bivio Calcroci,,45.389896,12.139701,,,,,,
2918,,Lugo - Capolinea,,45.372337,12.134935,,,,,,
2919,,dopo capolinea,,45.377441,12.132146,,,,,,
2920,,dopo chiesa,,45.377357,12.131877,,,,,,
2921,,Chiesa,,45.381790,12.129640,,,,,,
2922,,Lugo Chiesa,,45.382214,12.129938,,,,,,
2923,,Prima fermata,,45.384808,12.127797,,,,,,
2924,,dopo chiesa,,45.384968,12.128073,,,,,,
2925,,Istituto Alberghiero,,45.047939,12.050676,,,,,,
2926,,Istituto Alberghiero,,45.049286,12.050200,,,,,,
2927,,Capitello Madonna,,45.094730,12.113678,,,,,,
2928,,Prima del ponte,,45.102200,12.138656,,,,,,
2929,,Punta Pali,,45.102882,12.147656,,,,,,
2930,,Civico 6  - Ca' Briani,,45.116455,12.138671,,,,,,
2931,,Civico 21  (molino),,45.120525,12.112333,,,,,,
2932,,Civico 14 (v.Ca'Brandin),,45.124195,12.084741,,,,,,
2933,,Civico 29,,45.134109,12.028482,,,,,,
2934,,Civico 20,,45.133884,12.028407,,,,,,
2935,,S.P.29 dopo cisterna,,45.134960,12.008420,,,,,,
2936,,S.P. 29 prima cisterna,,45.134560,12.008615,,,,,,
2937,,Incr.v.Madonna Marina,,45.196861,12.281726,,,,,,
2938,,Incr. v.Venturini,,45.196671,12.281079,,,,,,
2939,,Chiesa Scaltenigo,,45.470692,12.080170,,,,,,
2940,,Inc. Nuova Romea,,45.205032,12.092971,,,,,,
2941,,Inc. Nuova Romea,,45.205227,12.093060,,,,,,
2943,,Civico 161 (v.Vivaldi),,45.458946,11.996826,,,,,,
2944,,Civico 180 (v.Vivaldi),,45.459103,11.996670,,,,,,
2945,,Arino Ferrovia,,45.442768,12.045788,,,,,,
2946,,Arino Ferrovia,,45.442375,12.046218,,,,,,
2950,,Mogliano via Pia,,45.560356,12.234147,,,,,,
2951,,Mogliano - Centro Civico,,45.560093,12.234925,,,,,,
2952,,Vetrego Centro,,45.457104,12.098528,,,,,,
2953,,Civico 45,,45.458031,12.106127,,,,,,
2954,,Civico 45,,45.457928,12.105916,,,,,,
2960,,Vetrego Centro,,45.457001,12.098623,,,,,,
2961,,incr. via XXV Aprile,,45.543129,12.112195,,,,,,
2962,,Civico 16  (Farmacia),,45.521759,12.108900,,,,,,
2963,,Civico 5,,45.521626,12.108468,,,,,,
2964,,Civico 30 (v.Scarlatti),,45.551281,12.114801,,,,,,
2965,,Centrale Enel,,45.560101,12.114949,,,,,,
2969,,Martellago Asilo,,45.545525,12.154919,,,,,,
2970,,Martellago Asilo,,45.545944,12.155128,,,,,,
2972,,Incr. via Bellini,,45.553814,12.262478,,,,,,
2973,,Incr. via Bellini,,45.553616,12.263330,,,,,,
2976,,Edicola,,45.554337,12.252638,,,,,,
2977,,Edicola,,45.554138,12.253148,,,,,,
2978,,Coop,,45.554420,12.251034,,,,,,
2979,,Coop,,45.554256,12.251183,,,,,,
2981,,Maerne FS,,45.518055,12.151640,,,,,,
2982,,Stigliano,,45.524963,12.046601,,,,,,
2983,,Carpenedo F S,,45.506325,12.247850,,,,,,
2984,,Carpenedo F S,,45.506321,12.248304,,,,,,
2985,,Campi Sportivi,,45.555637,12.246198,,,,,,
2986,,Campi Sportivi,,45.556496,12.246397,,,,,,
2989,,bivio S.Margherita,,45.246563,12.139308,,,,,,
2990,,bivio S.Margherita,,45.246979,12.139359,,,,,,
2991,,Incr.v.Argine Sinistro,,45.239376,12.147609,,,,,,
2992,,Incr. via Argine Sinistro,,45.239906,12.147633,,,,,,
2993,,Distributore Esso,,45.236145,12.156653,,,,,,
2994,,Distributore Esso,,45.235786,12.156372,,,,,,
2995,,Incr. Conche,,45.233654,12.165511,,,,,,
2996,,Incr. Conche,,45.233299,12.165479,,,,,,
2997,,incr.via Porcellana,,45.226418,12.182385,,,,,,
2998,,incr.via Porcellana,,45.226807,12.182366,,,,,,
2999,,Incr. Valli,,45.224545,12.192207,,,,,,
3000,,Incr. Valli,,45.224964,12.192038,,,,,,
3001,,Biblioteca (ExtraUrbano),,45.215088,12.276934,,,,,,
3002,,Ca' Bianca - Capolinea,,45.194939,12.197345,,,,,,
3003,,Civico 15 - Cive',,45.210289,12.148406,,,,,,
3006,,Cive' - Capolinea,,45.209270,12.150584,,,,,,
3007,,Civico 102 B,,45.204948,12.149303,,,,,,
3008,,Civico 102 B,,45.204914,12.148965,,,,,,
3009,,Incr. via Mira civico 112,,45.200138,12.147387,,,,,,
3010,,Incr.via Mira civico 112,,45.200039,12.147732,,,,,,
3011,,Incr. via Sista Alta,,45.196125,12.148224,,,,,,
3012,,Incr. via Sista Alta,,45.196659,12.148109,,,,,,
3013,,dopo bivio Sista,,45.193928,12.154531,,,,,,
3014,,dopo bivio Sista,,45.194065,12.154216,,,,,,
3015,,Civico 38,,45.194149,12.164652,,,,,,
3016,,Civico 38,,45.194389,12.164145,,,,,,
3017,,Civico 167,,45.194996,12.175238,,,,,,
3018,,Civico 167,,45.194630,12.175039,,,,,,
3019,,Ca' Bianca  (Idrovia),,45.190765,12.194801,,,,,,
3020,,Ca' Bianca  (v.Amolara),,45.191376,12.193472,,,,,,
3021,,Ca' Bianca  (Case Ina),,45.193466,12.198726,,,,,,
3022,,Ca' Bianca  (Case Ina),,45.193424,12.199010,,,,,,
3023,,Ca' Bianca  (Dist. Api),,45.193077,12.201556,,,,,,
3024,,Ca' Bianca  (Dist. Api),,45.193401,12.201388,,,,,,
3025,,Ca' Bianca  (Chiesa),,45.192219,12.203691,,,,,,
3026,,Ca' Bianca  (Chiesa),,45.192413,12.203590,,,,,,
3027,,Civico 17 - A  Ca' Amelia,,45.188992,12.211341,,,,,,
3028,,Civico 17 - A  Ca' Amelia,,45.189217,12.211221,,,,,,
3029,,Civico 11 A  Ca' Amelia,,45.187218,12.220752,,,,,,
3030,,Civico 11 A,,45.187271,12.220773,,,,,,
3031,,Tenuta Erizzi,,45.185558,12.227914,,,,,,
3032,,Tenuta Erizzi,,45.185722,12.228088,,,,,,
3033,,via Torre di Bebe,,45.183624,12.239298,,,,,,
3034,,via Torre di Bebe,,45.183578,12.239490,,,,,,
3035,,Civico 49 v.Torre di Bebe,,45.169395,12.237123,,,,,,
3036,,Civico 49 v.Torre di Bebe,,45.169384,12.237401,,,,,,
3037,,Incr. Strada Dolfina,,45.155823,12.209779,,,,,,
3038,,Incr. Strada Dolfina,,45.155735,12.209944,,,,,,
3039,,S. Gaetano,,45.148018,12.190057,,,,,,
3040,,S. Gaetano,,45.147945,12.190311,,,,,,
3041,,Km 9,,45.143009,12.174773,,,,,,
3042,,Km 9,,45.142857,12.174920,,,,,,
3043,,Chiosco Al Ponte,,45.133186,12.151216,,,,,,
3044,,Chiosco Al Ponte,,45.133053,12.151361,,,,,,
3045,,Localita' Braghetta,,45.132996,12.139555,,,,,,
3046,,Localita' Braghetta,,45.132885,12.139610,,,,,,
3047,,Dolfina - centro,,45.153801,12.208898,,,,,,
3048,,Dolfina - centro,,45.153835,12.209076,,,,,,
3049,,Km 13,,45.141441,12.206133,,,,,,
3050,,Km 13,,45.141487,12.206353,,,,,,
3051,,Civico 9 - Silos,,45.131020,12.200368,,,,,,
3052,,Civico 9 - Silos,,45.131062,12.200560,,,,,,
3053,,dopo Silos,,45.121864,12.199300,,,,,,
3054,,Prima Silos,,45.121899,12.199492,,,,,,
3055,,S. Pietro,,45.115273,12.187980,,,,,,
3056,,S. Pietro,,45.115189,12.188179,,,,,,
3057,,Prima dopo S.Pietro,,45.112099,12.191257,,,,,,
3058,,Prima prima di S.Pietro,,45.112274,12.191451,,,,,,
3059,,Seconda prima di S.Pietro,,45.105740,12.206141,,,,,,
3060,,Seconda prima di S.Pietro,,45.105953,12.206183,,,,,,
3061,,Prima di Cavanella,,45.105591,12.222574,,,,,,
3062,,dopo Cavanella,,45.105721,12.222643,,,,,,
3063,,Cavanella D' Adige,,45.109257,12.246865,,,,,,
3064,,Cavanella D' Adige,,45.109169,12.245553,,,,,,
3065,,Civico 26  - Cavanella,,45.113926,12.250803,,,,,,
3066,,Civico 26  - Cavanella,,45.113689,12.250501,,,,,,
3067,,Sport 2000,,45.115967,12.252334,,,,,,
3068,,Sport 2000,,45.116379,12.252308,,,,,,
3069,,Rist. Baldin,,45.127190,12.257689,,,,,,
3070,,Rist. Baldin,,45.127041,12.257287,,,,,,
3071,,Civico 46  (Casello),,45.131187,12.259703,,,,,,
3072,,Civico 46  (Casello),,45.131199,12.259507,,,,,,
3073,,Rist. Al Bragosso,,45.139973,12.264314,,,,,,
3074,,Rist. Al Bragosso,,45.139927,12.264016,,,,,,
3075,,S.Anna (v.Primavera),,45.141941,12.265545,,,,,,
3076,,S.Anna (v.Primavera),,45.142353,12.265181,,,,,,
3077,,S. Anna,,45.146671,12.267829,,,,,,
3078,,S. Anna,,45.145649,12.266993,,,,,,
3079,,Rist. Da Franco,,45.152374,12.270790,,,,,,
3080,,Rist. Da Franco,,45.152176,12.270442,,,,,,
3081,,Incr. Ca' Lino,,45.158108,12.272101,,,,,,
3082,,Incr. Ca' Lino,,45.157623,12.271881,,,,,,
3083,,Distributore  IP,,45.168549,12.274228,,,,,,
3084,,Distributore  IP,,45.168457,12.274000,,,,,,
3085,,Incr. Vecchia Romea,,45.174629,12.275740,,,,,,
3086,,Incr. Vecchia Romea,,45.174706,12.275588,,,,,,
3087,,Civico 6  (Incr. Romea),,45.178238,12.278865,,,,,,
3088,,Civico 6  (Incr. Romea),,45.178398,12.278578,,,,,,
3089,,Civico 20,,45.177555,12.284959,,,,,,
3090,,Civico 20,,45.177750,12.284582,,,,,,
3091,,Civico 92,,45.177368,12.287667,,,,,,
3092,,Civico 92,,45.177387,12.288013,,,,,,
3093,,Civico 78,,45.172729,12.290546,,,,,,
3094,,Civico 78,,45.172634,12.290963,,,,,,
3095,,Civico 64,,45.170811,12.292748,,,,,,
3096,,Civico 64,,45.170948,12.293066,,,,,,
3097,,Incr. via 1 Maggio,,45.164536,12.297320,,,,,,
3098,,Incr. via 1 Maggio,,45.164688,12.297550,,,,,,
3099,,Ca' Lino,,45.160069,12.299335,,,,,,
3100,,Ca' Lino,,45.160221,12.299539,,,,,,
3101,,Corte Colmello,,45.159306,12.307200,,,,,,
3102,,Corte Colmello,,45.159538,12.307345,,,,,,
3103,,Camping Isamar,,45.163296,12.322385,,,,,,
3104,,Camping Isamar,,45.163223,12.321985,,,,,,
3105,,Isaresidence,,45.167912,12.324944,,,,,,
3106,,Isaresidence,,45.167618,12.324591,,,,,,
3107,,Istituto Professionale,,45.171391,12.322121,,,,,,
3108,,Civico 7  (scuole),,45.171146,12.322104,,,,,,
3109,,Isola Verde - Capolinea,,45.174793,12.318967,,,,,,
3110,,Rist. Bella Laguna,,45.183903,12.248857,,,,,,
3111,,Rist. Bella Laguna,,45.184074,12.249126,,,,,,
3112,,Darsena,,45.183239,12.265562,,,,,,
3113,,Darsena,,45.183369,12.265626,,,,,,
3114,,Clodia Frigo,,45.184746,12.271538,,,,,,
3115,,Clodia Frigo,,45.184883,12.271551,,,,,,
3118,,Ponte delle Trezze,,45.215416,12.224485,,,,,,
3119,,Ponte delle Trezze,,45.215282,12.224211,,,,,,
3120,,Valfiore,,45.220051,12.212941,,,,,,
3121,,Valfiore,,45.219917,12.212667,,,,,,
3125,,Inc. via Seriola,,45.422485,12.095340,,,,,,
3126,,Inc. via Seriola,,45.422234,12.095160,,,,,,
3143,,Mira - Stazione FS,,45.427265,12.138959,,,,,,
3145,,Borgo San Giovanni Park,,45.207760,12.275805,,,,,,
3146,,Mercato Ortofrutticolo,,45.185062,12.276017,,,,,,
3255,,Centro Commerciale,,45.512432,12.228024,,,,,,
3267,,Sottomarina capolinea,,45.212502,12.291675,,,,,,
3269,,Sul ponte,,45.218418,12.281683,,,,,,
3270,,Prima del ponte,,45.218456,12.280875,,,,,,
3271,,Isola Dell' Unione,,45.216511,12.287815,,,,,,
3272,,Istituto Magistrale,,45.216297,12.287809,,,,,,
3273,,Linee frazioni,,45.217289,12.284217,,,,,,
3274,,Terminal Is.Unione,,45.217236,12.284381,,,,,,
3275,,Terminal Is.Unione,,45.217258,12.284185,,,,,,
3276,,Terminal Is.Unione,,45.217197,12.284346,,,,,,
3280,,Civico 24,,45.217026,12.292926,,,,,,
3283,,Scuole,,45.212952,12.291872,,,,,,
3284,,Civico 13,,45.212872,12.291975,,,,,,
3286,,Civico 253,,45.210602,12.290992,,,,,,
3287,,Civico 6,,45.211800,12.293094,,,,,,
3288,,Civico 6  (Giardini),,45.211948,12.292962,,,,,,
3293,,Hotel Metropole,,45.218281,12.294814,,,,,,
3294,,Hotel Pineta,,45.216869,12.294754,,,,,,
3297,,Civico 37,,45.206123,12.295406,,,,,,
3298,,Civico 154,,45.203838,12.296146,,,,,,
3299,,Civico 201 (v.Pigafetta),,45.201153,12.296906,,,,,,
3300,,Civico 255,,45.198780,12.297683,,,,,,
3302,,Fronte Camping Adriatico,,45.204060,12.299804,,,,,,
3304,,Bagni Pagoda,,45.207752,12.298079,,,,,,
3305,,Camping Europa,,45.210365,12.296090,,,,,,
3306,,Caserma Carabinieri,,45.210197,12.295655,,,,,,
3309,,Hotel Park  (Edicola),,45.203598,12.299504,,,,,,
3312,,Civico 21  (Hotel Sole),,45.198315,12.299032,,,,,,
3313,,Incr. via Da Verrazzano,,45.197784,12.295330,,,,,,
3314,,Incr. via Zeno,,45.197468,12.292822,,,,,,
3315,,Civico 464  (v.Sambuco),,45.197159,12.288358,,,,,,
3316,,Civico 596  (v.Robina),,45.196945,12.285506,,,,,,
3317,,Incr. via Celsi,,45.196587,12.284603,,,,,,
3318,,Civico 454  (v.Schiavo),,45.196907,12.288362,,,,,,
3319,,Civico 539,,45.197128,12.291336,,,,,,
3320,,Civico 159  (Farmacia),,45.197453,12.295098,,,,,,
3321,,Civico 471  (Ospedale),,45.197990,12.284912,,,,,,
3322,,Ospedale,,45.198174,12.284721,,,,,,
3323,,Civico 387,,45.200905,12.286357,,,,,,
3324,,Civico 388  (Ina Case),,45.201885,12.286516,,,,,,
3325,,Cimitero,,45.203949,12.287828,,,,,,
3327,,Fossetta,,45.197289,12.279435,,,,,,
3328,,Fossetta,,45.196995,12.279350,,,,,,
3329,,Incr.v.De Gasperi,,45.199760,12.277104,,,,,,
3330,,Incr. via Nenni,,45.201569,12.277127,,,,,,
3331,,Civico 581  (Uff.ACTV),,45.203831,12.276864,,,,,,
3332,,Civico 517 (v.Berlinguer),,45.206112,12.276293,,,,,,
3333,,Stazione FS,,45.210377,12.276137,,,,,,
3334,,Stadio,,45.211983,12.276491,,,,,,
3335,,Campo Marconi,,45.215900,12.277479,,,,,,
3336,,Civico 1214,,45.218342,12.278408,,,,,,
3337,,Civico 1227,,45.218960,12.278435,,,,,,
3341,,Chioggia FS,,45.209911,12.275804,,,,,,
3342,,Istituto Ragioneria,,45.206326,12.275982,,,,,,
3343,,Civico 490  (Distr.Q8),,45.203667,12.276521,,,,,,
3344,,Civico 764  (Tabacchi),,45.201027,12.276958,,,,,,
3345,,Sotto Cavalcavia,,45.198124,12.276805,,,,,,
3347,,R.Madonna,,45.195374,12.282276,,,,,,
3348,,Civico 24,,45.192554,12.281245,,,,,,
3349,,Civico 137,,45.190075,12.280211,,,,,,
3350,,Coop Agricola,,45.187515,12.279625,,,,,,
3351,,Brondolo Centro,,45.184525,12.278491,,,,,,
3352,,Incr. Brondolo,,45.184624,12.278691,,,,,,
3353,,Coop Agricola v.Dolfina,,45.187389,12.279753,,,,,,
3354,,Latte Busche,,45.189903,12.280394,,,,,,
3355,,Civico 65,,45.192768,12.281530,,,,,,
3356,,R. Madonna,,45.195351,12.282332,,,,,,
3357,,Civico 102,,45.134846,11.985233,,,,,,
3359,,Incr. via Calvi,,45.537613,12.059671,,,,,,
3360,,via Della Fonda,,45.553104,12.068510,,,,,,
3361,,Incr.v.del Bigolo,,45.558453,12.061921,,,,,,
3362,,Cappelletta Centro,,45.571209,12.060622,,,,,,
3363,,Civico 22,,45.563881,12.094026,,,,,,
3364,,Scuole,,45.570213,12.109863,,,,,,
3365,,Scuole,,45.569778,12.109753,,,,,,
3366,,Rio S. Martino (centro),,45.589130,12.110378,,,,,,
3367,,Rio S. Martino,,45.589161,12.110514,,,,,,
3369,,Localita' Tabina,,45.609383,12.111340,,,,,,
3370,,Localita' Tabina,,45.609444,12.111937,,,,,,
3371,,Incr. via Bonarroti,,45.601814,12.111056,,,,,,
3372,,Incr. via Capitellon,,45.600193,12.111595,,,,,,
3373,,Incr. via S. Ambrogio,,45.591846,12.110418,,,,,,
3374,,Incr.v.Gallese (scuola),,45.592125,12.110795,,,,,,
3375,,Civico 262,,45.534733,11.943693,,,,,,
3376,,Civico 262,,45.534996,11.944491,,,,,,
3377,,S.M.delle Badesse,,45.536034,11.936860,,,,,,
3378,,Zona Indust. - Capolinea,,45.531563,11.963092,,,,,,
3379,,Incr. via L. Da Vinci,,45.595249,12.110538,,,,,,
3380,,Incr. via L. Da Vinci,,45.595581,12.111050,,,,,,
3381,,Pensione Lido,,45.218899,12.293324,,,,,,
3382,,Mogliano Municipio,,45.561337,12.235728,,,,,,
3383,,Briana,,45.534019,12.051394,,,,,,
3384,,Civico 36,,45.520802,12.153378,,,,,,
3385,,Civico 49,,45.520252,12.153614,,,,,,
3388,,Incr. via Lancerotto,,45.547005,12.078978,,,,,,
3389,,civico 142,,45.494320,12.127540,,,,,,
3390,,civico 142,,45.493893,12.127678,,,,,,
3398,,Consorzio Mira,,45.432987,12.139830,,,,,,
3399,,Cavarzere Z.I.,,45.142918,12.086387,,,,,,
3400,,Cavarzere Z.I.,,45.144924,12.083512,,,,,,
3401,,Cavarzere Z.I.,,45.144806,12.083382,,,,,,
3402,,Cavarzere Z.I.,,45.144371,12.080333,,,,,,
3404,,Distretto Sanitario,,45.503983,12.285963,,,,,,
3406,,Prima del ponte,,45.157166,12.004675,,,,,,
3407,,Oriago  (Rist. Vettore),,45.453426,12.177616,,,,,,
3408,,Mirano Ospedale,,45.497967,12.117122,,,,,,
3409,,Mirano,,45.497921,12.119098,,,,,,
3410,,Incr. V.le Treviso,,45.498295,12.118950,,,,,,
3411,,P.zza Delle Erbe,,45.492451,12.110657,,,,,,
3412,,P.zza Delle Erbe,,45.492683,12.110280,,,,,,
3414,,Vigonovo Centro,,45.386471,12.007780,,,,,,
3415,,Vigonovo Centro,,45.386414,12.007277,,,,,,
3416,,Vigonovo - Capolinea,,45.389065,12.005025,,,,,,
3417,,Civico 9,,45.375935,12.006094,,,,,,
3418,,Civico 9,,45.376095,12.005960,,,,,,
3421,,Celeseo - Capolinea,,45.371250,12.012600,,,,,,
3423,,Mira Municipio,,45.433491,12.125757,,,,,,
3425,,Calcroci,,45.385117,12.096265,,,,,,
3426,,Calcroci,,45.384983,12.096462,,,,,,
3427,,Prozzolo Ferrovia,,45.368885,12.093080,,,,,,
3428,,Prozzolo Ferrovia,,45.368736,12.093196,,,,,,
3429,,Liceo,,45.051060,12.062583,,,,,,
3430,,S. Pietro - Centro,,45.115696,12.185645,,,,,,
3432,,Casello 12 Loc.Musatti,,45.426563,12.103056,,,,,,
3433,,Capitello Albrizzi,,45.431164,12.111123,,,,,,
3434,,Mira Centro,,45.433361,12.121996,,,,,,
3435,,Stazione FS di Oriago,,45.448948,12.166125,,,,,,
3436,,Oriago Centro,,45.451851,12.171876,,,,,,
3437,,Centro Commerciale,,45.044586,12.059816,,,,,,
3438,,Lugo - fronte Capolinea,,45.372032,12.134615,,,,,,
3439,,Rottanova Centro,,45.141716,12.013440,,,,,,
3440,,Adria Ospedale,,45.048107,12.055657,,,,,,
3441,,Adria Ospedale,,45.048130,12.055812,,,,,,
3444,,Cavanella - Capolinea,,45.109657,12.245361,,,,,,
3446,,bivio B. Barbariga,,45.412716,12.017199,,,,,,
3447,,bivio B. Barbariga,,45.412655,12.017598,,,,,,
3448,,Casello 9  bivio Paluello,,45.418388,12.050804,,,,,,
3449,,Casello 9  bivio Paluello,,45.418423,12.053370,,,,,,
3450,,Ca' Pasqua - Capolinea,,45.183666,12.242985,,,,,,
3451,,Incr. via Villafranca,,45.495255,12.112058,,,,,,
3452,,Incr. via Villafranca,,45.495247,12.111799,,,,,,
3453,,Civico 22,,45.495384,12.117554,,,,,,
3454,,Civico 14 (v.Ca'Brandin),,45.124363,12.084412,,,,,,
3455,,Civico 21  (molino),,45.120548,12.112724,,,,,,
3456,,Civico 6  - Ca' Briani,,45.115852,12.139364,,,,,,
3457,,Punta Pali,,45.102650,12.147126,,,,,,
3458,,dopo il ponte,,45.102539,12.138394,,,,,,
3459,,Capitello Madonna,,45.094872,12.114182,,,,,,
3460,,Civico 60,,45.087654,12.109684,,,,,,
3461,,Ponte Grignella,,45.072025,12.099201,,,,,,
3462,,Scuola Elementare,,45.075378,12.093847,,,,,,
3463,,Civico 13,,45.078869,12.088486,,,,,,
3464,,Istituto S.Marco,,45.491184,12.205716,,,,,,
3465,,Agenzia Delle Entrate,,45.469978,12.210017,,,,,,
3466,,Parco Clodi',,45.188038,12.278930,,,,,,
3475,,Istituto Gris,,45.558361,12.269529,,,,,,
3476,,Istituto Gris,,45.558105,12.269232,,,,,,
3477,,Localita' Stanga,,45.409061,11.903627,,,,,,
3480,,Martellago Centro,,45.546009,12.157515,,,,,,
3481,,Mirano scuole,,45.496170,12.095824,,,,,,
3490,,Villaggio dei Fiori,,45.492313,12.150464,,,,,,
3491,,Civico 9,,45.215336,12.292016,,,,,,
3492,,Civico 12,,45.215031,12.292194,,,,,,
3494,,Scuole,,45.208271,12.292160,,,,,,
3495,,"Pasticceria ""Da Berto""",,45.208179,12.289858,,,,,,
3496,,Civico 78,,45.206490,12.296863,,,,,,
3498,,Civico 152,,45.203987,12.298047,,,,,,
3499,,Incr. via Pegaso,,45.201519,12.299120,,,,,,
3500,,Civico 11  Edicola,,45.199837,12.299883,,,,,,
3501,,Brondolo,,45.184643,12.278858,,,,,,
3502,,Brondolo,,45.181610,12.279794,,,,,,
3503,,Brondolo,,45.181683,12.279724,,,,,,
3504,,Cantiere Munari,,45.427792,12.257347,,,,,,
3505,,Brondolo Centro,,45.184746,12.278878,,,,,,
485,,Parcheggio scambiatore,,45.514709,12.283532,,,,,,
487,,Fronte Civico 31,,45.474140,12.159186,,,,,,
488,,Civico 31,,45.474052,12.159686,,,,,,
489,,Fornase,,45.477074,12.160020,,,,,,
490,,Fornase,,45.477356,12.160055,,,,,,
501,,CORSIA A8,,45.438164,12.318434,,,,,,
503,,CORSIA B7,,45.437740,12.318321,,,,,,
505,,CORSIA B2,,45.437840,12.319076,,,,,,
506,,CORSIA A1,,45.438255,12.319207,,,,,,
507,,CORSIA A2,,45.438248,12.319139,,,,,,
508,,CORSIA A3,,45.438255,12.319068,,,,,,
509,,CORSIA A4,,45.438259,12.318982,,,,,,
510,,CORSIA A5,,45.438259,12.318910,,,,,,
511,,CORSIA A6,,45.438263,12.318851,,,,,,
512,,CORSIA A7,,45.438267,12.318780,,,,,,
514,,CORSIA B1,,45.437824,12.319190,,,,,,
515,,CORSIA B4,,45.437893,12.318943,,,,,,
516,,CORSIA B3,,45.437870,12.319024,,,,,,
517,,CORSIA B5,,45.437920,12.318844,,,,,,
518,,CORSIA B6,,45.437576,12.318973,,,,,,
527,,S.M.Mare-Pennello 2,,45.326313,12.321728,,,,,,
528,,S.M.Mare-Pennello 2,,45.326397,12.322150,,,,,,
540,,Civico 4B,,45.549965,12.076958,,,,,,
544,,Pergola,,45.503120,12.267841,,,,,,
545,,C.Comm.Le Barche,,45.492622,12.243914,,,,,,
546,,Cavarzere Capolinea,,45.132320,12.081796,,,,,,
547,,Capolinea ASL,,45.482048,12.201840,,,,,,
548,,Inc. Selvanese,,45.508511,12.208772,,,,,,
549,,Parcheggio,,45.509361,12.209953,,,,,,
550,,Scuole,,45.511433,12.211310,,,,,,
551,,Scuole,,45.511471,12.211020,,,,,,
552,,Cimitero,,45.203392,12.288547,,,,,,
553,,Incr. Da Verrazzano,,45.202660,12.293414,,,,,,
554,,Fronte PAM,,45.204208,12.294445,,,,,,
556,,Fronte Dix,,45.545040,12.070506,,,,,,
557,,Supermercato Dix,,45.544930,12.070262,,,,,,
558,,Ospedale,,45.552788,12.074696,,,,,,
559,,Ospedale,,45.552532,12.074610,,,,,,
563,,Istituti scolastici,,45.428925,12.085871,,,,,,
564,,Falloppio (SITA),,45.404430,11.887304,,,,,,
565,,Falloppio (SITA),,45.404526,11.887412,,,,,,
566,,Gozzi,,45.410606,11.882703,,,,,,
567,,Gozzi,,45.411858,11.882476,,,,,,
575,,Melloni,,45.427216,12.091467,,,,,,
576,,Meloni,,45.427147,12.091506,,,,,,
587,,Cavarzere FS,,45.147671,12.084365,,,,,,
588,,Cavarzere FS,,45.147278,12.084515,,,,,,
590,,Civico 3,,45.494823,12.267960,,,,,,
591,,Ponte delle Porte,,45.437134,12.141598,,,,,,
592,,Ponte delle Porte,,45.437008,12.141612,,,,,,
594,,Incr.v.Mons.Oddo Stocco,,45.520779,12.110995,,,,,,
597,,Sernaglia,,45.484398,12.236181,,,,,,
598,,Civico 234,,45.423588,11.977897,,,,,,
599,,Incr.v.Mascagni,,45.487751,12.110380,,,,,,
601,,Scuola G.Mazzini,,45.495209,12.103215,,,,,,
602,,Civico 6,,45.495628,12.113461,,,,,,
603,,Civico 22,,45.496159,12.118118,,,,,,
605,,Civico 117,,45.504810,12.133834,,,,,,
606,,Civico 11,,45.512928,12.115086,,,,,,
607,,Scuole,,45.494122,12.119549,,,,,,
608,,inc. via Morante,,45.550186,12.334412,,,,,,
609,,inc. via Morante,,45.550491,12.333693,,,,,,
610,,Incr. Negrelli,,45.502098,12.141241,,,,,,
611,,Ulloa,,45.479134,12.229342,,,,,,
612,,MESTRE FS C1,,45.482079,12.234669,,,,,,
613,,MESTRE FS C2,,45.482021,12.234631,,,,,,
614,,Incr. v.Pepe,,45.491108,12.246254,,,,,,
615,,incr.via Meucci,,45.491093,12.239982,,,,,,
616,,MESTRE CENTRO B3,,45.493553,12.246008,,,,,,
617,,Scuole,,45.460670,12.219049,,,,,,
620,,Centro Commerciale,,45.459454,12.212659,,,,,,
621,,Incr.via Pinton,,45.462040,12.215501,,,,,,
622,,Incr.via del Trifoglio,,45.461861,12.214904,,,,,,
623,,Inc. Castellana,,45.529728,12.187390,,,,,,
625,,Incr.v.Marinai d'Italia,,45.432674,12.137235,,,,,,
626,,Incr.v.Marinai d'Italia,,45.432480,12.137157,,,,,,
629,,MESTRE CENTRO B5,,45.493824,12.245619,,,,,,
630,,Ligabue,,45.465477,12.238401,,,,,,
632,,Terminal Ro-Port,,45.426861,12.247721,,,,,,
633,,CORRENTI,,45.465832,12.222430,,,,,,
637,,Rimessa bus,,45.446365,12.207115,,,,,,
638,,Rimessa bus,,45.445965,12.206977,,,,,,
640,,Centro Don Vecchi,,45.521137,12.229685,,,,,,
641,,Incr. Gioberti,,45.495674,12.156374,,,,,,
2227,,Ferrovia,,45.394634,12.099228,,,,,,
2228,,Localita' Marinelle,,45.404911,12.102017,,,,,,
2229,,Localita' Marinelle,,45.404896,12.101404,,,,,,
2230,,Sambruson,,45.413307,12.099564,,,,,,
2231,,Sambruson,,45.413406,12.099524,,,,,,
2232,,Sambruson,,45.413422,12.101236,,,,,,
2233,,Sambruson,,45.413254,12.101154,,,,,,
2234,,Rist. Redentore,,45.413994,12.110518,,,,,,
2235,,Rist. Redentore,,45.414173,12.110318,,,,,,
2236,,Ferrovia,,45.416191,12.122698,,,,,,
2237,,Ferrovia,,45.415981,12.122864,,,,,,
2238,,Porto Menai,,45.417976,12.132416,,,,,,
2239,,Porto Menai,,45.417786,12.132359,,,,,,
2240,,Incr. via dei Campi,,45.419483,12.140216,,,,,,
2241,,Incr. via dei Campi,,45.419525,12.140527,,,,,,
2242,,P.zza Vecchia,,45.417362,12.148179,,,,,,
2243,,P.zza Vecchia,,45.417404,12.147795,,,,,,
2244,,Scuole,,45.420635,12.151970,,,,,,
2245,,Scuole,,45.420628,12.151751,,,,,,
2246,,Gambarare Centro,,45.425087,12.152338,,,,,,
2247,,Gambarare Centro,,45.424805,12.152003,,,,,,
2248,,Incr. Riv. Matteotti,,45.434879,12.139224,,,,,,
2250,,Mira Municipio,,45.433239,12.124257,,,,,,
2251,,Mira Centro,,45.433758,12.121794,,,,,,
2252,,Mira Taglio  (cinema),,45.434532,12.121022,,,,,,
2253,,Supermercato Mirasole,,45.435337,12.129656,,,,,,
2254,,Supermercato Mirasole,,45.435535,12.129400,,,,,,
2256,,Mira Porte,,45.440193,12.140676,,,,,,
2257,,Mira Porte,,45.440311,12.140554,,,,,,
2258,,Distributore,,45.442039,12.146686,,,,,,
2260,,Capitello Albrizzi,,45.431320,12.111101,,,,,,
2261,,Casello 12  Loc. Musatti,,45.426735,12.102744,,,,,,
2263,,Deposito Dolo,,45.425667,12.081298,,,,,,
2264,,Deposito Dolo,,45.425579,12.081310,,,,,,
2265,,Argine Sinistro,,45.418705,12.087007,,,,,,
2266,,Argine Sinistro,,45.418858,12.087006,,,,,,
2267,,Ponte Vaso,,45.421570,12.079507,,,,,,
2268,,Ponte Vaso,,45.421734,12.079485,,,,,,
2269,,Ponte,,45.421078,12.078527,,,,,,
2270,,Ponte,,45.421104,12.078829,,,,,,
2271,,Idrovia,,45.411701,12.082251,,,,,,
2272,,Idrovia,,45.411327,12.081698,,,,,,
2273,,Supermecato,,45.389736,12.073627,,,,,,
2274,,Supermercato,,45.389717,12.073156,,,,,,
2275,,Campoverardo Chiesa,,45.393501,12.062260,,,,,,
2276,,Campoverardo Chiesa,,45.393612,12.062115,,,,,,
2277,,Campoverardo,,45.394302,12.062325,,,,,,
2278,,Campoverardo,,45.394115,12.062175,,,,,,
2279,,Crociata - civico 57,,45.390671,12.057688,,,,,,
2280,,Crociata - civico 52/A,,45.390751,12.057480,,,,,,
2281,,Bar Giardinetto,,45.394161,12.050577,,,,,,
2282,,Bar Giardinetto,,45.394096,12.050426,,,,,,
2283,,Villag.  Amicizia,,45.408760,12.051836,,,,,,
2284,,Villag. Amicizia,,45.408794,12.051694,,,,,,
2285,,Paluello Centro,,45.411747,12.053970,,,,,,
2286,,Paluello Centro,,45.411728,12.053779,,,,,,
2287,,Casello 9,,45.417149,12.052522,,,,,,
2288,,Casello 9,,45.417496,12.052273,,,,,,
2289,,Localita' Pecora,,45.418938,12.060034,,,,,,
2290,,Localita' Pecora,,45.419174,12.059919,,,,,,
2291,,Dolo Centro,,45.423599,12.074698,,,,,,
2292,,Dolo Centro,,45.423615,12.074477,,,,,,
2293,,Incr. via Bandiera,,45.417713,12.045567,,,,,,
2294,,Incr. via Bandiera,,45.417870,12.045483,,,,,,
2295,,Fiesso D' Artico,,45.416752,12.034814,,,,,,
2296,,Fiesso D' Artico,,45.416962,12.034814,,,,,,
2297,,Casa Cantoniera Anas,,45.416389,12.025122,,,,,,
2298,,Casa Cantoniera Anas,,45.416248,12.025340,,,,,,
2299,,Civico 170,,45.405853,12.039575,,,,,,
2300,,Civico 170,,45.406055,12.039568,,,,,,
2301,,"Tratt. ""Prandin""",,45.407146,12.029056,,,,,,
2302,,"Tratt. ""Prandin""",,45.406979,12.029053,,,,,,
2303,,via Pertile,,45.404434,12.019076,,,,,,
2304,,via Pertile,,45.404320,12.019219,,,,,,
2305,,P.tta S. Pietro,,45.405163,12.015689,,,,,,
2306,,P.tta S. Pietro,,45.405052,12.015465,,,,,,
2307,,Fronte Villa Pisani,,45.407249,12.013207,,,,,,
2308,,Villa Loredan,,45.407875,12.006717,,,,,,
2309,,Stra,,45.409458,12.005860,,,,,,
2310,,Stra,,45.409367,12.005611,,,,,,
2311,,Incr. via Capeleo,,45.413853,12.001616,,,,,,
2312,,Incr. via Capeleo,,45.413677,12.001560,,,,,,
2313,,Capriccio,,45.418785,11.987503,,,,,,
3,,incr.via Linghildal,,45.481152,12.247986,,,,,,
4,,Poste,,45.479931,12.250430,,,,,,
5,,Universita',,45.478153,12.253673,,,,,,
7,,Incr. via Ticozzi,,45.477299,12.250316,,,,,,
8,,A. C. I.,,45.479019,12.246115,,,,,,
9,,Imposte Dirette,,45.482002,12.236453,,,,,,
10,,"Condominio ""le Querce""",,45.484623,12.237791,,,,,,
11,,Torino,,45.484413,12.241175,,,,,,
12,,Milano,,45.487560,12.242879,,,,,,
13,,Mestrina,,45.490372,12.244611,,,,,,
16,,Capolinea Stra,,45.411140,12.005071,,,,,,
17,,Incr. via S. Chiara,,45.498684,12.231570,,,,,,
18,,Carducci,,45.490944,12.239929,,,,,,
19,,Lova,,45.329746,12.126642,,,,,,
24,,Incr. via Fagare',,45.483643,12.228148,,,,,,
25,,Incr. via Podgora,,45.487045,12.224774,,,,,,
26,,Incr. via Gazzera Alta,,45.489967,12.223633,,,,,,
27,,Incr.v.Cavalieri V.Veneto,,45.518951,12.191181,,,,,,
28,,S. Lucia chiesa,,45.535091,12.207755,,,,,,
29,,Localita' Avanti,,45.484715,12.194215,,,,,,
30,,Incr. via Ivancich,,45.484898,12.197292,,,,,,
31,,Incr. via Pergine,,45.485004,12.203161,,,,,,
32,,Incr. via Piemonte,,45.485031,12.207926,,,,,,
33,,Lazio,,45.485405,12.212161,,,,,,
34,,Calucci,,45.485615,12.214992,,,,,,
35,,Giustizia,,45.486336,12.221045,,,,,,
36,,Monteverdi,,45.490688,12.226445,,,,,,
37,,Vivaldi,,45.492226,12.230203,,,,,,
38,,Felisati,,45.491508,12.237906,,,,,,
39,,De Amicis,,45.490971,12.235674,,,,,,
40,,Piazzetta 11 Febbraio,,45.487083,12.234321,,,,,,
42,,Podgora,,45.484779,12.233228,,,,,,
43,,Brendole - Capolinea,,45.499535,12.213480,,,,,,
44,,Incr. via Stignano,,45.499214,12.214763,,,,,,
45,,Incr. via Promontore,,45.498875,12.218212,,,,,,
46,,Incr. via Arsa,,45.496555,12.219270,,,,,,
48,,Incr. via Da Todi,,45.496693,12.185061,,,,,,
49,,Incr. via Euganea,,45.495415,12.190179,,,,,,
50,,Incr.v.M.di Marzabotto,,45.494133,12.195601,,,,,,
51,,Incr.v.Card.Trevisanato,,45.493317,12.201032,,,,,,
52,,Istituto Volta,,45.492882,12.207755,,,,,,
53,,Istituto Liceo Morin,,45.493092,12.213739,,,,,,
54,,Incr. via Pirano,,45.495014,12.217248,,,,,,
55,,Incr. via Volpi,,45.494244,12.219485,,,,,,
56,,Incr. via Calucci,,45.492317,12.218108,,,,,,
57,,Civico 29,,45.488964,12.216741,,,,,,
58,,Incr. via Miranese,,45.486435,12.216187,,,,,,
59,,Trivignano,,45.529861,12.187586,,,,,,
60,,Incr. via Pitagora,,45.532616,12.190147,,,,,,
61,,Incr. via Gatta,,45.536884,12.191158,,,,,,
62,,Civico 51 (v.Mulino),,45.530472,12.152471,,,,,,
63,,Incr. via Protagora,,45.537434,12.195347,,,,,,
64,,Civico 47,,45.536777,12.203075,,,,,,
65,,S. Lucia  (scuole),,45.534878,12.207645,,,,,,
66,,Civico 90,,45.534451,12.213433,,,,,,
67,,Incr. via Scaramuzza,,45.533829,12.218740,,,,,,
68,,Incr. via Scarante,,45.533844,12.223490,,,,,,
69,,Passaggio Livello,,45.533020,12.229085,,,,,,
70,,Incr. via Pisacane,,45.535439,12.235843,,,,,,
71,,Incr. via Terraglio,,45.535652,12.238222,,,,,,
72,,Marocco Concess. Moto,,45.535069,12.239353,,,,,,
73,,Incr. via Nigra,,45.531178,12.239065,,,,,,
74,,Piscina,,45.527187,12.238905,,,,,,
75,,Favorita,,45.525158,12.238755,,,,,,
76,,Incr. via Terraglietto,,45.518272,12.238475,,,,,,
77,,Villa Salus,,45.512653,12.238397,,,,,,
78,,Incr. via Borgo Pezzana,,45.508953,12.238290,,,,,,
79,,Caserma Matter,,45.505276,12.238008,,,,,,
80,,Incr. via Teano,,45.501915,12.237705,,,,,,
81,,Giardini,,45.496521,12.238945,,,,,,
82,,Incr. via Terraglio,,45.497940,12.238046,,,,,,
83,,Incr. via Trento,,45.542355,12.154250,,,,,,
84,,P.tta G. Bruno,,45.495522,12.242358,,,,,,
86,,Parco del Picchio,,45.490799,12.215764,,,,,,
87,,civico 181,,45.539501,12.174917,,,,,,
88,,Incr. via Pree,,45.535965,12.178203,,,,,,
89,,Incr. via Botticelli,,45.532768,12.182796,,,,,,
90,,Trivignano (v.Ca'Lin),,45.529789,12.187010,,,,,,
91,,Incr. via della Chiesa,,45.527706,12.189939,,,,,,
92,,Incr. via Gozzoli,,45.525539,12.192647,,,,,,
93,,Incr.via Lotto,,45.523518,12.196058,,,,,,
94,,Incr. via Parolari,,45.517891,12.202751,,,,,,
95,,Zelarino Municipio,,45.514671,12.208453,,,,,,
96,,Zelarino Chiesa,,45.512878,12.211243,,,,,,
97,,Incr. via Carpaccio,,45.511192,12.214010,,,,,,
98,,Incr. Vicolo Marzenego,,45.507244,12.217476,,,,,,
99,,Incr.v.Bellotto Nazareth,,45.503277,12.221347,,,,,,
100,,Sanitaria,,45.497608,12.236824,,,,,,
101,,"Incr.v.Ciardi,Cipressina",,45.500145,12.226766,,,,,,
102,,Fornace,,45.540985,12.171627,,,,,,
104,,Piscina CONI,,45.495022,12.236192,,,,,,
105,,P.le Munaretto,,45.514469,12.208909,,,,,,
106,,Civico 105 (villa Volpi),,45.537338,12.239683,,,,,,
107,,Incr. via Marignana,,45.542118,12.236774,,,,,,
108,,Incr. via Rimini,,45.549122,12.234721,,,,,,
109,,Incr. via Ronzinella,,45.554222,12.234392,,,,,,
110,,Gaggio  (bar Canton),,45.552441,12.311153,,,,,,
112,,S. Liberale  (edicola),,45.548645,12.339005,,,,,,
113,,Impianti Sportivi,,45.556240,12.304235,,,,,,
114,,Cavalcavia Autostrada,,45.557877,12.310274,,,,,,
116,,Incr. via Giuliani,,45.496338,12.240108,,,,,,
117,,Ist.Gritti - Capolinea,,45.488987,12.268089,,,,,,
119,,Piave,,45.492130,12.235237,,,,,,
121,,Civico 249,,45.500999,12.322990,,,,,,
122,,Mazzocco Chiesa,,45.553127,12.267524,,,,,,
123,,Incr. via Favignana,,45.502522,12.211166,,,,,,
124,,Incr. via Favignana,,45.502518,12.210953,,,,,,
126,,bivio via Dello Sport,,45.558353,12.303520,,,,,,
127,,Marcon  (via Giorgione),,45.555752,12.298777,,,,,,
128,,Marcon  (via Filzi),,45.559731,12.298864,,,,,,
129,,Marcon - Capolinea,,45.565342,12.302382,,,,,,
130,,Marcon (centro civico),,45.563408,12.299097,,,,,,
131,,Marcon (municipio),,45.554283,12.299557,,,,,,
132,,Incr. via dello Sport,,45.553291,12.301924,,,,,,
133,,Centro Commerciale est,,45.545975,12.307516,,,,,,
134,,Centro Commerciale,,45.543839,12.303542,,,,,,
135,,S. Liberale - Capolinea,,45.548214,12.341940,,,,,,
136,,Incr.via F.Bandiera,,45.475937,12.234007,,,,,,
139,,Gaggio  (cimitero),,45.553646,12.318727,,,,,,
140,,Gaggio Centro,,45.552032,12.316423,,,,,,
141,,Gaggio Civico 61-v.Fermi,,45.552219,12.313458,,,,,,
142,,MESTRE CENTRO B2,,45.493111,12.245894,,,,,,
143,,Toys,,45.548717,12.309044,,,,,,
144,,Istituto Volta - Cap.7L,,45.492569,12.208012,,,,,,
150,,Malcontenta (Bar),,45.442852,12.196785,,,,,,
151,,Incr. via del Mosto,,45.493240,12.271802,,,,,,
152,,Incr. via del Mosto,,45.493298,12.271280,,,,,,
153,,Incr. via Mutinelli,,45.490932,12.276073,,,,,,
154,,Incr. via Mutinelli,,45.490681,12.276133,,,,,,
156,,Mattuglie - Capolinea,,45.491013,12.212483,,,,,,
157,,Incr. via Perlan,,45.490734,12.212386,,,,,,
158,,Park,,45.491650,12.246352,,,,,,
160,,Civico 59,,45.508968,12.262542,,,,,,
161,,MESTRE FS C6,,45.482380,12.234006,,,,,,
162,,MESTRE FS C4,,45.482601,12.233198,,,,,,
163,,MESTRE FS C5,,45.482433,12.233161,,,,,,
164,,MESTRE FS C3,,45.482586,12.232522,,,,,,
167,,Finanza,,45.491863,12.245983,,,,,,
168,,Incr. v.Colombo,,45.492443,12.244732,,,,,,
169,,Edicola,,45.492596,12.244362,,,,,,
171,,Incr. via Gerlin,,45.488651,12.249959,,,,,,
172,,Incr. via Hermada,,45.484932,12.253404,,,,,,
173,,Incr. via Millosevich,,45.483070,12.255144,,,,,,
174,,Incr. via M. Moretti,,45.481430,12.256691,,,,,,
175,,Stadio Atletica,,45.479122,12.260207,,,,,,
176,,Parco S.Giuliano,,45.475422,12.268060,,,,,,
177,,Incr. via Appia,,45.480026,12.270938,,,,,,
178,,Porto Cavergnago,,45.483376,12.278289,,,,,,
179,,Sabbadino,,45.484367,12.282720,,,,,,
180,,Civico 73 (v.Bagaron),,45.485554,12.288240,,,,,,
181,,Campalto Chiesa,,45.486603,12.293935,,,,,,
182,,Incr. via Casilina,,45.488857,12.301525,,,,,,
183,,Centro Don Vecchi,,45.490536,12.304314,,,,,,
184,,Centro Ippico,,45.494343,12.311830,,,,,,
185,,Civico 200,,45.497051,12.316491,,,,,,
186,,Incr. via Piovega,,45.499294,12.320244,,,,,,
187,,Civico 4,,45.535511,12.235906,,,,,,
188,,Tessera Centro,,45.503696,12.327225,,,,,,
189,,Civico 18,,45.503143,12.335894,,,,,,
190,,Impianti Sportivi,,45.489296,12.210112,,,,,,
191,,Impianti Sportivi,,45.489571,12.210626,,,,,,
192,,Civico 163 (v.Ca' Zorzi),,45.508259,12.335155,,,,,,
193,,Civico 175,,45.511898,12.343383,,,,,,
194,,Civico 208  (Poste),,45.512470,12.348557,,,,,,
195,,Aeronavali,,45.513531,12.351686,,,,,,
196,,Via Triestina 214/B,,45.516899,12.354687,,,,,,
197,,Casino',,45.520954,12.358292,,,,,,
198,,Tessera Scuole,,45.503681,12.324735,,,,,,
199,,Civico 126,,45.504055,12.319596,,,,,,
200,,Civico 129,,45.504864,12.310163,,,,,,
201,,Incr. via Piovega,,45.504200,12.303050,,,,,,
202,,Incr. via Lazzaretto,,45.503696,12.294913,,,,,,
204,,incr. via Monte Rosa,,45.505157,12.289068,,,,,,
206,,Civico 22 (v.Vallenari),,45.501698,12.284451,,,,,,
207,,Incr. via Borgo don Bosco,,45.497875,12.286176,,,,,,
208,,Incr. via Ca' Dolfin,,45.495888,12.288095,,,,,,
209,,Incr. via dei Mandarini,,45.494068,12.291313,,,,,,
210,,Civico 220 (v. Mirtilli),,45.492268,12.293742,,,,,,
211,,Incr. via Orlanda,,45.487289,12.295307,,,,,,
212,,Orlanda,,45.486137,12.295641,,,,,,
213,,Lova,,45.329792,12.126384,,,,,,
214,,Passo Campalto,,45.483051,12.296244,,,,,,
215,,Bagaron,,45.482067,12.291793,,,,,,
216,,Villaggio Laguna,,45.482071,12.287382,,,,,,
217,,Orlanda,,45.483669,12.284503,,,,,,
218,,Villaggio Laguna,,45.479931,12.289821,,,,,,
219,,Inc. P.le Zendrini,,45.479431,12.289759,,,,,,
220,,Cabina Enel,,45.479599,12.285148,,,,,,
221,,"Sottopasso ""tangenziale""",,45.537552,12.299825,,,,,,
222,,Dese FS - Capolinea,,45.537460,12.302055,,,,,,
223,,Dese (v.delle Cicogne),,45.531971,12.303214,,,,,,
224,,Dese Centro,,45.528664,12.304158,,,,,,
225,,"Dese  ""scuola Materna""",,45.526203,12.303631,,,,,,
226,,Civico 181,,45.526127,12.297716,,,,,,
227,,Civico 184,,45.522236,12.288418,,,,,,
228,,Incr. via Ca' Badoera,,45.516411,12.284142,,,,,,
229,,Altinia,,45.514206,12.283265,,,,,,
230,,Incr.v.Colombara (chiesa),,45.511696,12.283088,,,,,,
231,,"Incr. via Indri ""pesa""",,45.509968,12.282542,,,,,,
232,,Civico 101 (v.S.Andrea),,45.507866,12.282355,,,,,,
233,,"Favaro, fronte Municipio",,45.505424,12.282474,,,,,,
240,,Autostazione Padova,,45.416622,11.883815,,,,,,
241,,Incr. via Passo Falzarego,,45.504238,12.254389,,,,,,
242,,Piazza Carpenedo,,45.504993,12.250504,,,,,,
243,,"""Cimitero""",,45.500206,12.247145,,,,,,
244,,"""Giardini Garibaldi""",,45.502850,12.248999,,,,,,
246,,Spalti,,45.496811,12.244771,,,,,,
256,,Fiera Padova,,45.413559,11.889348,,,,,,
257,,Incr. via Rione Pertini,,45.482018,12.267743,,,,,,
258,,Incr. via Gavagnin,,45.483471,12.267151,,,,,,
259,,Chiesa,,45.485882,12.270345,,,,,,
260,,Villaggio Sartori,,45.507256,12.240024,,,,,,
261,,Taliercio - Capolinea,,45.489136,12.279075,,,,,,
264,,Civico 151,,45.493198,12.266068,,,,,,
265,,Incr. via Mascheroni,,45.494022,12.264238,,,,,,
267,,Incr. via Plinio,,45.497303,12.265393,,,,,,
268,,Incr. via Bissuola,,45.495296,12.263734,,,,,,
269,,Civico 88 (v.Tevere),,45.493816,12.260492,,,,,,
270,,Istituto Berna,,45.493782,12.256713,,,,,,
271,,Fronte Farmacia,,45.494949,12.253036,,,,,,
272,,"Incr.v.Colombo, Civico 14",,45.495281,12.249742,,,,,,
277,,Civico 5,,45.509190,12.257257,,,,,,
280,,Fiera Padova,,45.413315,11.889192,,,,,,
283,,Vallon,,45.508549,12.255608,,,,,,
284,,Incr. via Pasqualigo,,45.507416,12.261147,,,,,,
285,,Civico 45,,45.505989,12.261077,,,,,,
286,,Quartiere S. Giuseppe,,45.480083,12.266906,,,,,,
287,,Passerella ciclopedonale,,45.483536,12.262695,,,,,,
288,,Incr. via Gritti,,45.486446,12.259280,,,,,,
289,,Incr. via Cattaneo,,45.490566,12.254661,,,,,,
290,,Incr. via Pigafetta,,45.493801,12.252260,,,,,,
291,,Incr. via Garigliano,,45.495819,12.251128,,,,,,
292,,Civico 32,,45.497662,12.248340,,,,,,
293,,incr.via Vespucci,,45.486992,12.256321,,,,,,
294,,Capolinea - Crea,,45.482426,12.140841,,,,,,
296,,Fornase,,45.477798,12.157886,,,,,,
297,,Cimitero,,45.481056,12.161246,,,,,,
298,,Incr. via Palermo,,45.484516,12.163931,,,,,,
299,,Incr. via Sarpi,,45.487465,12.166145,,,,,,
300,,Lato Piazza,,45.489819,12.167764,,,,,,
301,,Spinea,,45.489651,12.167313,,,,,,
303,,Incr. v.Pepe,,45.491188,12.246137,,,,,,
304,,Matteotti,,45.490738,12.167497,,,,,,
305,,Sanremo,,45.495056,12.158163,,,,,,
306,,Localita' Orgnano,,45.496246,12.150093,,,,,,
307,,Spinea (bivio V.Fiori),,45.484917,12.145963,,,,,,
308,,Spinea  (via Desenzano),,45.489182,12.148730,,,,,,
311,,Goldoni,,45.491581,12.152813,,,,,,
312,,Giorgione,,45.487137,12.179151,,,,,,
313,,Selenia,,45.485882,12.181724,,,,,,
314,,Chirignago,,45.484703,12.188897,,,,,,
315,,Incr. via dell' Edera,,45.483330,12.192976,,,,,,
316,,Incr. via Feltre,,45.477478,12.199181,,,,,,
317,,Capolinea,,45.460232,12.218834,,,,,,
318,,Civico 99,,45.474289,12.201015,,,,,,
319,,Civico 87,,45.473358,12.200164,,,,,,
320,,Civico 114,,45.474152,12.196635,,,,,,
321,,Civico 49 (v. dei Morari),,45.473423,12.195257,,,,,,
322,,Incr. via degli Ontani,,45.472729,12.192331,,,,,,
323,,Cervino,,45.502594,12.274478,,,,,,
324,,Villabona - Capolinea,,45.473358,12.188519,,,,,,
325,,Commercio,,45.478680,12.243048,,,,,,
326,,Catene  Chiesa,,45.477448,12.203135,,,,,,
327,,Parco Catene,,45.477348,12.205420,,,,,,
328,,Vignole,,45.476997,12.211821,,,,,,
329,,Eraclea,,45.476959,12.216318,,,,,,
330,,Calvi,,45.478024,12.219415,,,,,,
331,,CITA,,45.480152,12.223355,,,,,,
333,,Durando,,45.478542,12.231611,,,,,,
334,,Ulloa,,45.479504,12.231116,,,,,,
335,,Centro Commerciale,,45.466187,12.214821,,,,,,
336,,Incr. via Monzani,,45.463139,12.216743,,,,,,
337,,Cervino,,45.502438,12.274787,,,,,,
338,,Inc.v.della Fratellanza,,45.462166,12.221426,,,,,,
339,,Incr. via del Lavoratore,,45.464256,12.222666,,,,,,
340,,Fronte Farmacia Comunale,,45.466217,12.222899,,,,,,
348,,Incr. via Quarnaro,,45.492340,12.218749,,,,,,
349,,Parmesan,,45.477112,12.219865,,,,,,
350,,P.le Parmesan,,45.476177,12.218940,,,,,,
351,,Istituto Edison,,45.474289,12.219305,,,,,,
352,,Incr. via Oroboni Edicola,,45.471676,12.220201,,,,,,
353,,Chiesa,,45.469498,12.221297,,,,,,
354,,Rielta,,45.502827,12.271395,,,,,,
355,,Cimitero,,45.486641,12.189285,,,,,,
356,,Incr. vicolo Sestella,,45.489563,12.190360,,,,,,
357,,Incr. via Carnia,,45.491745,12.190881,,,,,,
358,,Incr. via Asseggiano,,45.494499,12.191739,,,,,,
359,,Papa Giovanni XXIII,,45.517395,12.186420,,,,,,
360,,Cassa di Risparmio,,45.518742,12.181866,,,,,,
361,,Civico 169  (Tabina),,45.519531,12.177216,,,,,,
362,,Incr. via Calvi,,45.520470,12.172748,,,,,,
363,,Cimitero,,45.522057,12.165795,,,,,,
364,,Incr.v.Tasso (scuole),,45.523148,12.162560,,,,,,
365,,Maerne Chiesa,,45.523884,12.158188,,,,,,
366,,Civico 120,,45.526821,12.157088,,,,,,
367,,Rielta,,45.502476,12.271340,,,,,,
368,,Luneo,,45.493103,12.161488,,,,,,
369,,Inc. via San Dona',,45.504295,12.282751,,,,,,
370,,Capolinea - Martellago,,45.543797,12.162420,,,,,,
371,,Preganziol FS,,45.604115,12.231750,,,,,,
372,,Incr. via Trento,,45.543842,12.167463,,,,,,
373,,Banca,,45.545769,12.162215,,,,,,
374,,Martellago Centro,,45.546864,12.157206,,,,,,
375,,Vempa,,45.482101,12.237834,,,,,,
376,,Villaggio Sartori,,45.507080,12.239843,,,,,,
380,,Fincantieri,,45.475475,12.251347,,,,,,
381,,Aquae,,45.470852,12.259123,,,,,,
382,,Righi,,45.469772,12.264310,,,,,,
384,,MESTRE CENTRO,,45.493328,12.245418,,,,,,
392,,Santa Chiara,,45.440727,12.315589,,,,,,
396,,Approdo Nave Traghetto,,45.439228,12.304583,,,,,,
397,,Incr. via Durando Ior,,45.477398,12.232248,,,,,,
398,,Tipografia,,45.502781,12.274645,,,,,,
399,,Istituto Veneto,,45.472740,12.229663,,,,,,
400,,Fondazione Chiari,,45.469715,12.227922,,,,,,
401,,Incr.v.Mutilati,,45.468258,12.227089,,,,,,
402,,Civico 172 (v.Manara),,45.464687,12.224942,,,,,,
404,,"Incr. via Cruto ""Chiesa""",,45.461586,12.223125,,,,,,
405,,Inc. via Torino,,45.481850,12.248132,,,,,,
406,,Inc. via Torino,,45.481739,12.248354,,,,,,
407,,Uffici Comunali,,45.484322,12.250699,,,,,,
408,,Uffici Comunali,,45.484230,12.250868,,,,,,
414,,Incr. via Colombara,,45.456512,12.217882,,,,,,
415,,Incr.SR11Padana Superiore,,45.451042,12.213978,,,,,,
417,,Incr. via della Chimica,,45.445923,12.211212,,,,,,
419,,Chiesa,,45.437775,12.205470,,,,,,
420,,P.le Fusina - Capolinea,,45.419380,12.256454,,,,,,
421,,Incr.v.dell'Elettronica,,45.424934,12.247364,,,,,,
422,,"Civico 66  ""le chiuse""",,45.427933,12.240947,,,,,,
423,,Civico 42,,45.428215,12.231525,,,,,,
424,,Civico 32,,45.429085,12.222054,,,,,,
425,,"Civico 28  ""scuole""",,45.435036,12.209553,,,,,,
426,,Sottopasso Romea,,45.439289,12.200235,,,,,,
427,,Malcontenta (Bar),,45.442570,12.197197,,,,,,
428,,Ca' Brentelle,,45.446739,12.196758,,,,,,
429,,Incr. via dell'Erba,,45.446270,12.194299,,,,,,
430,,Incr. via Piva,,45.457775,12.185707,,,,,,
431,,"Civico 215  ""edicola""",,45.457962,12.181393,,,,,,
432,,Ca' Sabbioni - Capolinea,,45.456276,12.185546,,,,,,
434,,Incr. via Zorzi,,45.457184,12.180570,,,,,,
435,,Incr. Statale 11,,45.453644,12.179529,,,,,,
436,,Camping Serenissima,,45.451553,12.183302,,,,,,
437,,Incr. via della Stazione,,45.448528,12.193416,,,,,,
438,,Civico 128,,45.448776,12.199115,,,,,,
439,,Incr. via del Luccio,,45.449226,12.203074,,,,,,
442,,Silos,,45.434235,12.217047,,,,,,
444,,Alumix 1,,45.429829,12.233926,,,,,,
445,,Alumix 2,,45.429504,12.240933,,,,,,
447,,Entrata Centrale Enel,,45.428455,12.247818,,,,,,
450,,Nuova Sirma,,45.444118,12.215211,,,,,,
451,,Ingresso 4,,45.446510,12.226057,,,,,,
452,,Ingresso 5,,45.448643,12.232925,,,,,,
453,,Ingresso 7,,45.448776,12.236868,,,,,,
454,,Montefibre - Capolinea,,45.445358,12.244991,,,,,,
456,,P.le Bottenigo - Transito,,45.460541,12.218868,,,,,,
457,,Incr. via Trieste,,45.476654,12.201261,,,,,,
458,,MESTRE CENTRO B4,,45.493156,12.246099,,,,,,
459,,Incr. via delle Macchine,,45.473778,12.239003,,,,,,
461,,Chiesa di S.Nicolo',,45.428486,12.380626,,,,,,
463,,Ca' Bianca Capolinea,,45.389103,12.351744,,,,,,
464,,Malamocco capolinea,,45.368793,12.336895,,,,,,
465,,Banchina Molini,,45.474964,12.237737,,,,,,
473,,P.zza Cosmai,,45.456589,12.182996,,,,,,
474,,del Bosco,,45.477219,12.209056,,,,,,
475,,V.le San Marco,,45.557858,12.300717,,,,,,
476,,Incr. via Ca' Rossa,,45.497021,12.250054,,,,,,
479,,Veneto Strade,,45.515244,12.231544,,,,,,
481,,Veneto Strade,,45.515224,12.231278,,,,,,
482,,D.Peron civico 12,,45.517330,12.231672,,,,,,
483,,D.Peron civico 1/a,,45.517769,12.231398,,,,,,
642,,Distretto Sanitario,,45.491623,12.155826,,,,,,
646,,MESTRE CENTRO B7,,45.493332,12.246082,,,,,,
1001,,Incr.Corso del Popolo,,45.483509,12.241883,,,,,,
1002,,Incr. via Altobello,,45.482929,12.244573,,,,,,
1003,,incr.via Ancona,,45.481697,12.247540,,,,,,
1004,,Poste,,45.480450,12.250155,,,,,,
1005,,Universita',,45.478745,12.253215,,,,,,
1006,,Universita' - Capolinea,,45.479362,12.252038,,,,,,
1007,,Incr. via Ticozzi,,45.477100,12.250582,,,,,,
1008,,A. C. I.,,45.478771,12.246408,,,,,,
1009,,Imposte Dirette,,45.481686,12.237450,,,,,,
1011,,Gozzi,,45.484406,12.240851,,,,,,
1012,,Tasso,,45.487572,12.242548,,,,,,
1013,,Mestrina,,45.490402,12.244340,,,,,,
1017,,v.Antonio da Pordenone,,45.498108,12.232547,,,,,,
1023,,Sernaglia,,45.483387,12.236174,,,,,,
1024,,Incr. via Fagare',,45.483765,12.227965,,,,,,
1025,,Incr. via Podgora,,45.487171,12.224797,,,,,,
1026,,Incr. via Gazzera Alta,,45.489918,12.223829,,,,,,
1027,,Incr.v.Cavalieri V.Veneto,,45.519043,12.191508,,,,,,
1029,,Avanti,,45.484634,12.194906,,,,,,
1030,,Ivancich,,45.484715,12.198080,,,,,,
1031,,Pergine,,45.484879,12.203424,,,,,,
1032,,Piemonte,,45.484951,12.208591,,,,,,
1033,,Lazio,,45.485245,12.212564,,,,,,
1034,,Calucci,,45.485565,12.217080,,,,,,
1035,,Giustizia,,45.485977,12.220436,,,,,,
1036,,Monteverdi,,45.490574,12.226953,,,,,,
1037,,Vivaldi,,45.492195,12.230649,,,,,,
1039,,De Amicis,,45.490837,12.235384,,,,,,
1041,,Fiume,,45.487812,12.234284,,,,,,
2421,,Civico 88,,45.533569,12.110826,,,,,,
2422,,Civico 85,,45.533237,12.110578,,,,,,
2423,,"Rist. "" Il Burchiello""",,45.446442,12.159578,,,,,,
2424,,"Rist. "" Il Burchiello""",,45.446079,12.159264,,,,,,
2425,,Distributore,,45.441902,12.146779,,,,,,
2426,,Stazione FS di Oriago,,45.449081,12.165473,,,,,,
2427,,Oriago  (Rist. Vettore),,45.453629,12.176764,,,,,,
2428,,Oriago Centro,,45.451809,12.171410,,,,,,
2429,,Civico 15,,45.456326,12.170998,,,,,,
2431,,Civico 81,,45.459194,12.164803,,,,,,
2432,,Civico 8,,45.459305,12.164227,,,,,,
2433,,Incr. via Calabria,,45.457600,12.159834,,,,,,
2434,,Incr. via Calabria,,45.457447,12.160021,,,,,,
2435,,incr. via Sieve,,45.455990,12.156087,,,,,,
2436,,incr. via Sieve,,45.455666,12.155820,,,,,,
2437,,Borbiago  (chiesa),,45.454597,12.151603,,,,,,
2438,,Borbiago  (chiesa),,45.454590,12.152394,,,,,,
2439,,Civico 16 (v.Boldani),,45.453197,12.143913,,,,,,
2440,,Incr. via Boldani,,45.453442,12.143759,,,,,,
2441,,Civico 2,,45.456142,12.132495,,,,,,
2442,,Civico 7,,45.456371,12.132435,,,,,,
2443,,Marano Sottopasso,,45.463009,12.122021,,,,,,
2444,,Marano Sottopasso,,45.462887,12.122078,,,,,,
2445,,bivio Giare,,45.402668,12.149469,,,,,,
2446,,bivio Giare,,45.400833,12.147037,,,,,,
2447,,incr.via Bastie,,45.420544,12.170709,,,,,,
2448,,incr.via Bastie,,45.420708,12.170510,,,,,,
2449,,Fabbr. Pansac,,45.429714,12.184673,,,,,,
2450,,Fabbr. Pansac,,45.429680,12.184243,,,,,,
2451,,bivio Malcontenta,,45.435764,12.193630,,,,,,
2452,,bivio Malcontenta,,45.435444,12.192575,,,,,,
2453,,S. Pietro Centro,,45.115799,12.185794,,,,,,
2454,,dopo S. Pietro,,45.121937,12.168340,,,,,,
2455,,Localita' Pizzon,,45.123741,12.157363,,,,,,
2456,,Gasdotto - dopo Pizzon,,45.124119,12.139618,,,,,,
2457,,Prima S. Pietro,,45.121765,12.168303,,,,,,
2458,,Localita' Pizzon,,45.123409,12.156881,,,,,,
2459,,Gasdotto/prima di Pizzon,,45.124065,12.139443,,,,,,
2460,,Boscochiaro,,45.140076,12.114325,,,,,,
2461,,Boscochiaro,,45.137165,12.117020,,,,,,
2462,,Capitello,,45.138889,12.107978,,,,,,
2463,,dopo il ponte,,45.141418,12.097117,,,,,,
2468,,Pontenovo,,45.142376,12.070665,,,,,,
2469,,Incr. via Trieste,,45.142540,12.083437,,,,,,
2470,,Villaggio Busonera,,45.142948,12.095818,,,,,,
2471,,Fronte Villa Pisani,,45.407398,12.013106,,,,,,
2472,,Villa Loredan,,45.408039,12.006877,,,,,,
2473,,Localita' Madonna Mora,,45.483978,12.004600,,,,,,
2474,,Localita' Madonna Mora,,45.483822,12.004363,,,,,,
2475,,Incr. via Pioga,,45.480843,12.020783,,,,,,
2476,,Incr. via Pioga,,45.481014,12.020850,,,,,,
2477,,Capitello,,45.486691,12.004578,,,,,,
2478,,Capitello,,45.486805,12.004326,,,,,,
2479,,Centro Caselle,,45.489582,12.005681,,,,,,
2480,,Centro Caselle,,45.489346,12.005265,,,,,,
2481,,Tabina,,45.499641,12.009351,,,,,,
2482,,Tabina,,45.500153,12.009357,,,,,,
2483,,Piarotto Legno,,45.507755,12.017973,,,,,,
2484,,Piarotto Legno,,45.507854,12.018373,,,,,,
2485,,Centro S. M. Sala,,45.504623,12.034861,,,,,,
2486,,Centro S. M. Sala,,45.504681,12.035447,,,,,,
2487,,Incr. Campocroce,,45.500504,12.056856,,,,,,
2488,,Incr. Campocroce,,45.500729,12.056286,,,,,,
2489,,Rist. Cavin,,45.499172,12.064930,,,,,,
2490,,Rist. Cavin,,45.499043,12.064937,,,,,,
2491,,Bowling,,45.497532,12.072824,,,,,,
2492,,Bowling,,45.497822,12.073032,,,,,,
2493,,Bar - Distributore Api,,45.494793,12.088675,,,,,,
2494,,Bar - Pizzeria,,45.494537,12.089120,,,,,,
2495,,Incr. via Modigliani,,45.495480,12.084983,,,,,,
2496,,Incr. via Modigliani,,45.495293,12.085124,,,,,,
2497,,bivio Noale,,45.505981,12.028358,,,,,,
2498,,bivio Noale,,45.505836,12.028375,,,,,,
2499,,Grimani,,45.492359,12.102227,,,,,,
2500,,Grimani,,45.492176,12.102992,,,,,,
2501,,Perugino,,45.492954,12.097641,,,,,,
2502,,Civico 69,,45.494392,12.101719,,,,,,
2503,,Civico 69,,45.494282,12.101987,,,,,,
2504,,Istituto Ponti,,45.491756,12.106153,,,,,,
2505,,Istituto Ponti,,45.492020,12.105698,,,,,,
2506,,incr.via Vivaldi,,45.490963,12.112412,,,,,,
2507,,incr.via Vivaldi,,45.491085,12.112538,,,,,,
2508,,Ferrari,,45.491528,12.109012,,,,,,
2509,,Ferrari,,45.491661,12.109122,,,,,,
2510,,Farmacia,,45.492764,12.115817,,,,,,
2511,,Farmacia,,45.492882,12.116081,,,,,,
2512,,Civico 111,,45.491653,12.118458,,,,,,
2513,,Civico 111,,45.491764,12.118361,,,,,,
2514,,Ospedale Mirano,,45.497978,12.114778,,,,,,
2515,,Mirano Ospedale,,45.497765,12.114843,,,,,,
2516,,Istituto Engim,,45.498405,12.118743,,,,,,
2518,,Pizzeria,,45.497330,12.125446,,,,,,
2519,,Carducci,,45.497211,12.125380,,,,,,
2520,,Incr. via Mariutto,,45.496262,12.112086,,,,,,
2522,,Civico 9  (Poligono),,45.498695,12.098681,,,,,,
2523,,Civico 9  (Poligono),,45.498962,12.098821,,,,,,
2524,,Civico 16  (Supermarket),,45.499783,12.095626,,,,,,
2525,,Civico 16  (Supermarket),,45.499981,12.095799,,,,,,
2526,,Civico 60 (v.Osteri),,45.501595,12.086411,,,,,,
2527,,Civico 60 (v.Osteri),,45.501873,12.086367,,,,,,
2528,,Civico 100  (v.Contarini),,45.503754,12.084262,,,,,,
2529,,Civico 100  (v.Contarini),,45.503956,12.084251,,,,,,
2530,,Centro Zianigo,,45.504757,12.077602,,,,,,
2531,,Centro Zianigo,,45.504959,12.077615,,,,,,
2532,,Civico 98,,45.508579,12.078460,,,,,,
2533,,Civico 98,,45.508675,12.078023,,,,,,
2534,,Incr. via Mazzan,,45.511360,12.070290,,,,,,
2535,,Incr. via Mazzan,,45.511669,12.070419,,,,,,
2536,,Incr. 3 Ponti,,45.517723,12.035797,,,,,,
2537,,Incr. 3 Ponti,,45.517986,12.035875,,,,,,
2538,,Civico 60,,45.515423,12.048225,,,,,,
2539,,Civico 60,,45.515705,12.048333,,,,,,
2540,,Centro Veternigo,,45.513943,12.058518,,,,,,
2541,,Centro Veternigo,,45.513535,12.058518,,,,,,
2542,,S. Angelo,,45.521477,12.016947,,,,,,
2543,,S. Angelo,,45.520931,12.018636,,,,,,
2544,,Borgoricco - Capolinea,,45.530842,11.966182,,,,,,
2545,,Borgoricco - Capolinea,,45.530651,11.965970,,,,,,
2546,,Civico 131,,45.528088,11.981272,,,,,,
2547,,S. Eufemia,,45.526363,11.990848,,,,,,
2548,,Osteria Ongarato,,45.523808,12.004184,,,,,,
2549,,Osteria Ongarato,,45.523563,12.003891,,,,,,
2550,,Mira Scuole,,45.438217,12.127119,,,,,,
2551,,bivio Monache,,45.416290,12.081697,,,,,,
2552,,bivio Monache,,45.416744,12.081990,,,,,,
2553,,Incr. via Pellico,,45.403805,12.082974,,,,,,
2554,,Incr. via Pellico,,45.404045,12.083597,,,,,,
2555,,Civico 19,,45.384331,12.040253,,,,,,
2556,,Civico 14,,45.384499,12.040162,,,,,,
2557,,Civico 67,,45.462967,12.175870,,,,,,
2558,,Civico 63,,45.461296,12.175224,,,,,,
2559,,Civico 11,,45.458679,12.174318,,,,,,
2560,,S. Eufemia,,45.525928,11.991548,,,,,,
2561,,Civico 131,,45.527855,11.981172,,,,,,
2562,,Fossa,,45.495159,12.135520,,,,,,
2563,,Fossa,,45.495361,12.135509,,,,,,
2564,,Civico 433\d,,45.496052,12.143678,,,,,,
2565,,Civico 268  (Vip Pelle),,45.496281,12.143666,,,,,,
2566,,Incr. via Rossignago,,45.507980,12.148339,,,,,,
2567,,Incr. via Rossignago,,45.506783,12.147276,,,,,,
2568,,Incr. via Luneo,,45.501453,12.144137,,,,,,
2569,,Incr. via Luneo,,45.500568,12.143253,,,,,,
2570,,Maerne Centro,,45.523335,12.155684,,,,,,
2571,,Maerne Centro,,45.523540,12.155345,,,,,,
2578,,Incr. via Boschette,,45.503948,12.109583,,,,,,
2579,,Incr. via Boschette,,45.504036,12.109157,,,,,,
2580,,Incr. via Luneo,,45.511684,12.113319,,,,,,
2581,,Incr. via Luneo,,45.511654,12.112756,,,,,,
2582,,Ca' Bozza,,45.517246,12.112377,,,,,,
2583,,Ca' Bozza,,45.517242,12.111902,,,,,,
